APN,Registered Date,Property Type,PropertyAddress,PropertyCity,PropertyState,PropertyZip,CouncilDistrict,Lender,LenderContact,LenderContactPhone,PropertyManagement,PropertyManagementContact,PropertyManagementAddress,PropertyMgmtContactPhone,lon,lat,Property on map
2340010012,12/28/2021 12:00:00 AM,Single Family,12026 W CALIFA ST,LOS ANGELES,CA,91607,2,Robert Khodorovsky,Robert Khodorovsky,818-486-9736,NULL,NULL,,NULL,-118.39509,34.17721,POINT (-118.39509 34.17721)
6083002006,01/13/2021 12:00:00 AM,Single Family,138 E LANZIT AVE,LOS ANGELES,CA,90061,15,Celink,Daniel Stack,866-727-4303,J & J BOARD- UPS/FIVE BROTHERS,JAVIER ORTIZ,475  S Rall AVE  Bassett CA 91746,626-290-9017,-118.27255,33.92961,POINT (-118.27255 33.92961)
5014004009,01/07/2021 12:00:00 AM,Multi-Family,4517 S 9TH AVE,LOS ANGELES,CA,90043,8,"DANCO, INC.",RONALD PERLSTEIN,310-842-8234,NULL,NULL,,NULL,-118.32704,34.00219,POINT (-118.32704 34.00219)
5555007014,03/22/2021 12:00:00 AM,Single Family,1376 N MILLER PL,HOLLYWOOD,CA,90069,4,Commercial Group International Inc,Pamela Becker,310-804-3873,NULL,NULL,,NULL,-118.3766,34.09547,POINT (-118.3766 34.09547)
5055010013,01/07/2021 12:00:00 AM,Multi-Family,1352 1/2 W 29TH ST,LOS ANGELES,CA,90007,9,"DANCO, INC.",RONALD PERLSTEIN,310-842-8234,NULL,NULL,,NULL,-118.29052,34.02816,POINT (-118.29052 34.02816)
5071001033,01/21/2021 12:00:00 AM,Single Family,1717 S CRENSHAW BLVD,LOS ANGELES,CA,90019,10,SHELLPOINT MORTGAGE SERVICING,Shellpoint Servicing,800-365-7107,NULL,NULL,,NULL,-118.32956,34.04304,POINT (-118.32956 34.04304)
5104008020,12/10/2021 12:00:00 AM,Multi-Family,5213 1/2 S COMPTON AVE,LOS ANGELES,CA,90011,9,"Don F. King, M.D., Inc. Profit Sharing Plan",DON KING,562-698-5958,NULL,NULL,,NULL,-118.24798,33.99526,POINT (-118.24798 33.99526)
5477014005,09/29/2021 12:00:00 AM,Single Family,1015 W DEXTER ST,LOS ANGELES,CA,90042,1,SUPERIOR LOAN SERVICING,BARRY HARARI,818-483-0027,NULL,NULL,,NULL,-118.20818,34.11746,POINT (-118.20818 34.11746)
2172026061,10/08/2021 12:00:00 AM,Vacant Residential,4116 N CACHALOTE ST,LOS ANGELES,CA,91364,3,Stelo Investments LLC,gwidael buchon,310-384-4324,NULL,NULL,,NULL,-118.59379,34.14493,POINT (-118.59379 34.14493)
2339008006,07/12/2021 12:00:00 AM,Single Family,11860 W TIARA ST,LOS ANGELES,CA,91607,2,"PEAK FORECLOSURE SERVICES, INC.",Kelli Espinoza,818-591-9237,NULL,NULL,,NULL,-118.39105,34.17732,POINT (-118.39105 34.17732)
5425017009,10/08/2021 12:00:00 AM,Multi-Family,1611 N SILVER LAKE BLVD,LOS ANGELES,CA,90026,13,Esteban & Juan Molina,Juan Molina,323-807-2827,NULL,NULL,,NULL,-118.26935,34.0884,POINT (-118.26935 34.0884)
6029020019,01/28/2021 12:00:00 AM,Single Family,906 E 83RD ST,LOS ANGELES,CA,90001,9,MidFirst Bank,Erik Kenner,800-468-1743,Xome Field Services C/O New Beginning Properties Inc.,Lourdes Chavez,999  W Marshall BLVD  San Bernadino CA 92405,800-468-1743,-118.25829,33.96368,POINT (-118.25829 33.96368)
5057002014,01/14/2021 12:00:00 AM,Single Family,2430 S HARCOURT AVE,LOS ANGELES,CA,90016,10,Wells Fargo Bank N.A.,Jenna Douglas,877-617-5274,LPS,Jenna Douglas,1003  E Brier DR  San Bernardino CA 92408,281-404-7816,-118.34541,34.03386,POINT (-118.34541 34.03386)
5559008006,08/30/2021 12:00:00 AM,Single Family,1242 N SUNSET PLAZA DR,HOLLYWOOD,CA,90069,4,"KSM Holdings, LLC",Kian Salehi,917-676-6430,NULL,NULL,,NULL,-118.38149,34.09398,POINT (-118.38149 34.09398)
7416023018,01/04/2021 12:00:00 AM,Single Family,931 N NEPTUNE AVE,LOS ANGELES,CA,90744,15,Selene Finance,Eric Moore,877-338-3791,Safeguard,Code Compliance,27720   Jefferson AVE  Temecula CA 92590,877-338-3791,-118.26902,33.78197,POINT (-118.26902 33.78197)
2569008001,01/23/2021 12:00:00 AM,Vacant Residential,6001 W SISTER ELSIE DR,LOS ANGELES,CA,91042,7,SUPERIOR LOAN SERVICING,BARRY HARARI,818-483-0027,Scott Jones,Scott Jones,1401   Caminto Faro   La Jolla CA 92037,858-405-6667,-118.26683,34.25403,POINT (-118.26683 34.25403)
4226013031,11/17/2021 12:00:00 AM,Single Family,4 E 20TH AVE,VENICE,CA,90291,11,"Mr. Cooper/Nationstar Mortgage, LLC.",Mr. Cooper,888-456-0714,"Solid Foundation Properties, LLC.",Compliance Team,2690   Cobb PKWY A5379 SMYRNA GA 30080,333-205-7447,-118.47137,33.98494,POINT (-118.47137 33.98494)
5151002158,09/02/2021 12:00:00 AM,Single Family,716 W 1ST ST,LOS ANGELES,CA,90012,14,Selene Finance - Jefferson Office,Eric Moore,877-338-3791,Safeguard,Code Compliance,27720   Jefferson AVE  Temecula CA 92590,877-338-3791,-118.25063,34.05662,POINT (-118.25063 34.05662)
2283011022,01/14/2021 12:00:00 AM,Single Family,16027 W DICKENS ST,LOS ANGELES,CA,91436,4,Wells Fargo Bank N.A.,Jenna Douglas,877-617-5274,M&M Mortgage Co,Deborah Prado,12901  SW 132 AVE  Miami FL 33186,800-336-4890,-118.4823,34.15503,POINT (-118.4823 34.15503)
2128023011,01/07/2021 12:00:00 AM,Single Family,6162 N SYLVIA AVE,LOS ANGELES,CA,91335,3,RUSHMORE LOAN MANAGEMENT SERVICES,Property Preservation,949-341-5601,Safeguard Properties,Edward Zubia,3540   wilshire BLVD  Los Angeles CA 90010,213-383-2097,-118.55222,34.18272,POINT (-118.55222 34.18272)
6006020012,01/29/2021 12:00:00 AM,Multi-Family,320 E GAGE AVE,LOS ANGELES,CA,90003,9,Mr. Cooper,Paula Acosta,800-468-1743,"Solid Foundation Properties, LLC.",Compliance Team,2690   Cobb PKWY A5379 SMYRNA GA 30080,333-205-7447,-118.26876,33.9823,POINT (-118.26876 33.9823)
5003032029,11/17/2021 12:00:00 AM,Multi-Family,5719 S NORMANDIE AVE,LOS ANGELES,CA,90037,8,"Mr. Cooper/Nationstar Mortgage, LLC.",Mr. Cooper,888-456-0714,"Solid Foundation Properties, LLC.",Compliance Team,2690   Cobb PKWY A5379 SMYRNA GA 30080,333-205-7447,-118.30036,33.98998,POINT (-118.30036 33.98998)
4419018050,01/06/2021 12:00:00 AM,Single Family,16959 W DULCE YNEZ LANE,LOS ANGELES,CA,90272,11,BANK OF AMERICA,VPR DEPARTMENT,213-345-6264,EDWARD ZUBIA,EDWARD ZUBIA,3540   wilshire BLVD  Los Angeles CA 90010,818-406-3611,-118.55077,34.04674,POINT (-118.55077 34.04674)
2647019005,01/20/2021 12:00:00 AM,Single Family,14153 W CLARETTA ST,LOS ANGELES,CA,91331,6,Select Portfolio Servicing,Select Portfolio Servicing,888-349-8964,edward zubia,Edward Zubia,3540   willshire BLVD  los angeles CA 90010,213-804-7437,-118.44198,34.2532,POINT (-118.44198 34.2532)
2110009017,01/28/2021 12:00:00 AM,Single Family,21901 W ARMINTA ST,LOS ANGELES,CA,93063,3,Mr. Cooper,Paula Acosta,800-468-1743,Xome Field Services C/O New Beginning Properties Inc.,Lourdes Chavez,999  W Marshall BLVD  San Bernadino CA 92405,800-468-1743,-118.60412,34.2138,POINT (-118.60412 34.2138)
7445019079,01/21/2021 12:00:00 AM,Single Family,1088 W VIA CORDOVA,SAN PEDRO,CA,90732,15,Select Portfolio Servicing,Select Portfolio Servicing,888-349-8964,edward zubia,Edward Zubia,3540   willshire BLVD  los angeles CA 90010,213-804-7437,-118.30015,33.75487,POINT (-118.30015 33.75487)
7559023011,03/28/2021 12:00:00 AM,Single Family,1760 W EL REY RD,LOS ANGELES,CA,90732,15,Mr. Cooper,Paula Acosta,800-468-1743,"Solid Foundation Properties, LLC.",Compliance Team,2690   Cobb PKWY A5379 SMYRNA GA 30080,333-205-7447,-118.31439,33.74009,POINT (-118.31439 33.74009)
5128013021,01/29/2021 12:00:00 AM,Multi-Family,637 1/2 E 29TH ST,LOS ANGELES,CA,90011,9,CLLFIRMLLC401K Plan,Stephen Wheeler,951-694-3903,Center Street Lending Corp,Luis Montero,18301   Von Karman Ave. ste 330 AVE 330 irvine CA 92612,949-404-1186,-118.26352,34.01957,POINT (-118.26352 34.01957)
2601040095,07/15/2021 12:00:00 AM,Single Family,11737 W LOIS CT,LOS ANGELES,CA,91344,12,Specialized Loan Servicing LLC C/O Computershare on behalf of beneficiary,Computershare Management,720-241-7375,First Team Real Estate,Eddy Leon,20234   State ROAD  Cerritos CA 90703,562-461-1200,-118.52019,34.28407,POINT (-118.52019 34.28407)
2729024103,01/06/2021 12:00:00 AM,Single Family,18528  MAYALL AVE,LOS ANGELES,CA,91326,12,Shellpoint Mortgage Servicing,Eric Moore,877-338-3791,Cyprexx - Physical Address,Code Compliance,525   Grand Regency BLVD  Brandon FL 33510,813-387-5891,-118.5363,34.2531,POINT (-118.5363 34.2531)
2076004022,10/28/2021 12:00:00 AM,Single Family,4838 N CALDERON ROAD,LOS ANGELES,CA,91364,3,Redwood BPL Holdings Inc. c/o CoreVest,Jeremy Mullins,949-288-7085,CoreVest,Jeremy Mullins,4   Park PLZ 900 Irvine CA 92614,949-288-7085,-118.62003,34.158,POINT (-118.62003 34.158)
5052025040,01/08/2021 12:00:00 AM,Multi-Family,2161 1/2 W 31ST ST,LOS ANGELES,CA,90018,10,JP Morgan Chase NA,Amy Lott,888-310-1506,Greenfield Property LLC,MCS LLC,4033   Stable Drive   Palmdale CA 93552,866-563-1100,-118.31388,34.02658,POINT (-118.31388 34.02658)
5522009015,02/03/2021 12:00:00 AM,Single Family,645 N MANHATTAN PL,LOS ANGELES,CA,90004,13,Mr. Cooper,Paula Acosta,800-468-1743,"Solid Foundation Properties, LLC.",Compliance Team,2690   Cobb PKWY A5379 SMYRNA GA 30080,333-205-7447,-118.31032,34.08295,POINT (-118.31032 34.08295)
4238012001,06/02/2021 12:00:00 AM,Multi-Family,1402 S MAIN ST,LOS ANGELES,CA,90291,11,"Citibank, N.A., as Trustee for the Registered Holders of Wells Fargo Commercial Mortgage Securities",Michael Sidlow,415-957-3169,Receivership Specialists,CJ Gross,1500   Palma DR 2 flr Ventura CA 93003,805-824-4429,-118.47183,33.98936,POINT (-118.47183 33.98936)
5437024025,01/08/2021 12:00:00 AM,Single Family,2931 N GRACIA ST,LOS ANGELES,CA,90039,13,Statebridge,Bryce Fendall,720-697-6421,"New Beginning Properties, Inc.",Jose Chavez,445  W 34th ST  San Bernardino CA 92405,877-339-8202,-118.26017,34.11125,POINT (-118.26017 34.11125)
5185021004,01/29/2021 12:00:00 AM,Multi-Family,2815 1/2 E INEZ ST,LOS ANGELES,CA,90023,14,Mr. Cooper,Paula Acosta,800-468-1743,Xome Field Services C/O New Beginning Properties Inc.,Lourdes Chavez,999  W Marshall BLVD  San Bernadino CA 92405,800-468-1743,-118.20798,34.03412,POINT (-118.20798 34.03412)
2678005002,12/21/2021 12:00:00 AM,Single Family,16342 W TUBA ST,LOS ANGELES,CA,91343,12,Carrington Mortgage Services,code compliance,866-563-1100,Pinelands Preservation,Will Wheelehan,44501   Auburn BLVD  Sacramento CA 95841,916-277-8243,-118.48878,34.2564,POINT (-118.48878 34.2564)
5486021023,01/05/2021 12:00:00 AM,Single Family,386 N KIRBY ST,LOS ANGELES,CA,90042,14,Fay Servicing,Eric Moore,877-338-3791,MCS,Code Compliance,350   HIGHLAND DR  LEWISVILLE TX 75067,813-387-1100,-118.18328,34.12219,POINT (-118.18328 34.12219)
7351008010,10/05/2021 12:00:00 AM,Single Family,1612 W 206TH ST,LOS ANGELES,CA,90501,15,"AB Capital, LLC",Ryan Young,949-499-7800,AB Capital,Ryan Young,15   Corporate Plaza DR  Newport Beach CA 92660,949-290-1979,-118.30716,33.8437,POINT (-118.30716 33.8437)
5587023011,01/07/2021 12:00:00 AM,Single Family,1910 N WESTERN AVE,LOS ANGELES,CA,90027,4,JP Morgan Chase NA,Amy Lott,888-310-1506,Greenfield Property LLC,MCS LLC,4033   Stable Drive   Palmdale CA 93552,866-563-1100,-118.30912,34.10569,POINT (-118.30912 34.10569)
6061025004,01/06/2021 12:00:00 AM,Single Family,542 W 105TH ST,LOS ANGELES,CA,90044,8,Shellpoint Mortgage Servicing,Eric Moore,877-338-3791,Safeguard,Code Compliance,27720   Jefferson AVE  Temecula CA 92590,877-338-3791,-118.28426,33.94063,POINT (-118.28426 33.94063)
2375015054,10/28/2021 12:00:00 AM,Single Family,4242 N BEEMAN AVE,LOS ANGELES,CA,91604,4,Specialized Loan Servicing LLC C/O Computershare on behalf of beneficiary,Computershare Management,720-241-7375,First Team Real Estate,Eddy Leon,20234   State ROAD  Cerritos CA 90703,562-461-1200,-118.40717,34.14806,POINT (-118.40717 34.14806)
5404010028,04/28/2021 12:00:00 AM,Multi-Family,1731 W BELLEVUE AVE,LOS ANGELES,CA,90026,13,"JPMorgan Chase Bank, N.A.",Gary Norris,209-460-2080,Avalos,Lilia Avalos,1719   Bellevue   Los Angeles CA 90026,209-460-2080,-118.26295,34.07164,POINT (-118.26295 34.07164)
4360014024,04/15/2021 12:00:00 AM,Single Family,801 S WESTHOLME AVE,LOS ANGELES,CA,90024,5,PHH Mortgage/Ocwen Financial Corporation,Marquita Bullock,561-682-7547,Guardian Asset Management,Colleen McEntee,2300  E Lincoln HWY  Langhorne PA 19047,267-825-0283,-118.43572,34.06622,POINT (-118.43572 34.06622)
2275005016,03/23/2021 12:00:00 AM,Single Family,4059 N KNOBHILL DR,LOS ANGELES,CA,91403,4,WSFS Bank,Diane Steiger,302-573-3291,Direct Realty,Noel Jaimes,15274   Granada Ave AVE  La Mirada CA 90638,562-964-4142,-118.44858,34.14407,POINT (-118.44858 34.14407)
5563026019,02/15/2021 12:00:00 AM,Single Family,2001 N OAKSTONE WAY,HOLLYWOOD,CA,90046,4,Fay Servicing,Eric Moore,877-338-3791,MCS,Code Compliance,350   HIGHLAND DR  LEWISVILLE TX 75067,813-387-1100,-118.38375,34.10701,POINT (-118.38375 34.10701)
5017030051,01/23/2021 12:00:00 AM,Single Family,1040 W 46TH ST,LOS ANGELES,CA,90037,9,PHH Mortgage Corporation,Marquita Bullock,888-820-6474,Property Preservation Servicing LLC,Trevethan Aaron,27071   cabot RD  LAGUNA HILLS CA 92653,949-612-0342,-118.2931,34.00153,POINT (-118.2931 34.00153)
2701049042,01/05/2021 12:00:00 AM,Single Family,11353 N FERRARA LANE,LOS ANGELES,CA,91326,12,Select Portfolio Servicing,Select Portfolio Servicing,888-349-8964,edward zubia,Edward Zubia,3540   willshire BLVD  los angeles CA 90010,213-804-7437,-118.58151,34.27795,POINT (-118.58151 34.27795)
2761015010,01/08/2021 12:00:00 AM,Single Family,9800 N PENFIELD AVE,LOS ANGELES,CA,91311,12,Select Portfolio Servicing,Select Portfolio Servicing,888-349-8964,Edward Zubia,edaward zubia,3540   wilshire BLVD  Los Angeles CA 90010,213-804-7437,-118.56945,34.24805,POINT (-118.56945 34.24805)
2264006128,01/08/2021 12:00:00 AM,Single Family,4665 N WILLIS AVE,LOS ANGELES,CA,91403,4,Specialized Loan Servicing LLC C/O Computershare on behalf of beneficiary,Computershare Management,720-241-7375,First Team Real Estate,Eddy Leon,20234   State ROAD  Cerritos CA 90703,562-461-1200,-118.45545,34.15594,POINT (-118.45545 34.15594)
2565014112,05/24/2021 12:00:00 AM,Single Family,10142 N SAMOA AVE,LOS ANGELES,CA,91042,7,"Deutsche Bank National Trust Company, as Trustee",Select Portfolio Servicing,888-349-8964,Edward Zubia,edaward zubia,3540   wilshire BLVD  Los Angeles CA 90010,213-804-7437,-118.2872,34.2537,POINT (-118.2872 34.2537)
4232025005,10/08/2021 12:00:00 AM,Non-Residential,4544 S CENTINELA AVE,LOS ANGELES,CA,90066,11,"APSEC RESOLUTION TRUST, LLC",ANISSA HONG,213-805-5278,NULL,NULL,,NULL,-118.42215,33.9922,POINT (-118.42215 33.9922)
2201020009,01/22/2021 12:00:00 AM,Single Family,7913 N LOUISE AVE,LOS ANGELES,CA,91325,12,US Bank National Association,Carrie Bratcher,800-365-7772,Edward Zubia,Edward Zubia,3540   wilshire BLVD  Los Angeles CA 90010,213-804-7437,-118.51004,34.21432,POINT (-118.51004 34.21432)
6033003031,01/07/2021 12:00:00 AM,Single Family,1349 W 84TH PL,LOS ANGELES,CA,90044,8,"DANCO, INC.",RONALD PERLSTEIN,310-842-8234,Los Angeles County Property Preservation,Eddie Zubia,3540   WILSHIRE BLVD 1109 LOS ANGELES CA 90010,213-804-7437,-118.29988,33.96175,POINT (-118.29988 33.96175)
2731006010,01/09/2021 12:00:00 AM,Single Family,18245 W SAN JOSE ST,LOS ANGELES,CA,91326,12,PHH Mortgage/Ocwen Financial Corporation,Marquita Bullock,561-682-7547,Guardian Asset Management,Colleen McEntee,2300  E Lincoln HWY  Langhorne PA 19047,267-825-0283,-118.53125,34.26111,POINT (-118.53125 34.26111)
6014033010,07/02/2021 12:00:00 AM,Single Family,1322 W 71ST ST,LOS ANGELES,CA,90044,8,PHH Mortgage/Ocwen Financial Corporation,Marquita Bullock,561-682-7547,Guardian Asset Management,Colleen McEntee,2300  E Lincoln HWY  Langhorne PA 19047,267-825-0283,-118.29885,33.97528,POINT (-118.29885 33.97528)
5048018004,01/14/2021 12:00:00 AM,Single Family,5571 W BODEN ST,LOS ANGELES,CA,90016,10,COMMUNITY LOAN SERVICING,Frances Guerra,954-590-7676,Greenfield Property LLC,MCS LLC,4033   Stable Drive   Palmdale CA 93552,866-563-1100,-118.36815,34.02828,POINT (-118.36815 34.02828)
2423030052,04/03/2021 12:00:00 AM,Single Family,10650 W CHIQUITA ST,LOS ANGELES,CA,91602,2,Kenny Lim,Kenny Lim,818-913-2577,Safeguard,Edward Zubia,3540   WILSHIRE BLVD 1109 LOS ANGELES CA 90010,213-804-7437,-118.36406,34.14397,POINT (-118.36406 34.14397)
6016033009,01/06/2021 12:00:00 AM,Single Family,7028 S HAAS AVE,LOS ANGELES,CA,90047,8,RUSHMORE LOAN MANAGEMENT SERVICES,Property Preservation,949-341-5601,Safeguard Properties,Edward Zubia,3540   wilshire BLVD  Los Angeles CA 90010,213-383-2097,-118.31671,33.97554,POINT (-118.31671 33.97554)
4326003067,01/08/2021 12:00:00 AM,Single Family,10550 W WILSHIRE BLVD 1-50,LOS ANGELES,CA,90024,5,SELECT PORTFOLIO SERVICING INC,Customer Department,801-293-3936,edward zubia,Edward Zubia,3540   willshire BLVD  los angeles CA 90010,213-804-7437,-118.43255,34.06277,POINT (-118.43255 34.06277)
4004026011,01/05/2021 12:00:00 AM,Single Family,6222 S KENISTON AVE,LOS ANGELES,CA,90043,8,Cenlar FSB,Eric Moore,877-338-3791,Five Brothers Default Management,Ken Yatta,12220  E Thirteen Mile ROAD 100 Warren MI 48093,586-350-2737,-118.34163,33.98295,POINT (-118.34163 33.98295)
6055015041,02/01/2021 12:00:00 AM,Single Family,1514 W 99TH ST,LOS ANGELES,CA,90047,8,Mr. Cooper,Paula Acosta,800-468-1743,"Solid Foundation Properties, LLC.",Compliance Team,2690   Cobb PKWY A5379 SMYRNA GA 30080,333-205-7447,-118.30309,33.94584,POINT (-118.30309 33.94584)
2366026027,01/14/2021 12:00:00 AM,Single Family,4189 N VINELAND AVE,LOS ANGELES,CA,91604,2,Wells Fargo Bank N.A.,Jenna Douglas,877-617-5274,LPS,Jenna Douglas,1003  E Brier DR  San Bernardino CA 92408,281-404-7816,-118.37055,34.14472,POINT (-118.37055 34.14472)
2178027011,01/21/2021 12:00:00 AM,Single Family,4621 N CONCHITA WAY,LOS ANGELES,CA,91356,3,"BRC Commercial Bridge Fund, LLC",David Takakawa,213-248-5657,BRC Commercial Bridge Fund,David Takakawa,245   Calle Mayor   Redondo Beach CA 90277,213-226-8705,-118.55927,34.1546,POINT (-118.55927 34.1546)
2785003007,01/27/2021 12:00:00 AM,Single Family,18646 W BRYANT ST,LOS ANGELES,CA,91324,12,Seattle Bank c/o Reverse Mortgage Solutions,Shelly Martinez,281-404-7962,Expert Real Estate & Investment,Aurora Gim,9447   FIRESTONE BLVD A DOWNEY CA 90241,951-286-5918,-118.53981,34.22717,POINT (-118.53981 34.22717)
2004003006,10/04/2021 12:00:00 AM,Single Family,8351 N PONCE AVE,LOS ANGELES,CA,93063,12,Celink,Cory Daggett,866-654-0020,J & J BOARD- UPS/FIVE BROTHERS,JAVIER ORTIZ,475  S Rall AVE  Bassett CA 91746,626-290-9017,-118.62158,34.22104,POINT (-118.62158 34.22104)
5001021015,05/12/2021 12:00:00 AM,Multi-Family,609 1/2 W 56TH ST,LOS ANGELES,CA,90037,9,Gregory Funding,Gregory Funding,866-712-5698,Edward Zubia,Edward Zubia,3540   wilshire BLVD  Los Angeles CA 90010,213-804-7437,-118.28456,33.99157,POINT (-118.28456 33.99157)
2654002136,02/11/2021 12:00:00 AM,Single Family,9038 N ORION AVE,LOS ANGELES,CA,91343,7,PHH Mortgage Corporation,Marquita Bullock,888-820-6474,Property Preservation Servicing LLC,Trevethan Aaron,27071   cabot RD  LAGUNA HILLS CA 92653,949-612-0342,-118.47181,34.23495,POINT (-118.47181 34.23495)
2510012031,01/22/2021 12:00:00 AM,Single Family,13457 N ELDRIDGE AVE,LOS ANGELES,CA,91342,7,Sergey Polishchuk,Sergey Polishchuk,818-915-1761,N/A,Segey Polishchuk,17144   Kingsbury ST  GRANADA HILLS CA 91344,818-915-1761,-118.42302,34.31634,POINT (-118.42302 34.31634)
2607017018,06/13/2021 12:00:00 AM,Single Family,11547 N OSTROM AVE,LOS ANGELES,CA,91344,12,"Aspen Properties Group, LLC",Kim Young,913-349-0401,"AFS c/o NEW BEGINNING PROPERTIES, INC",Chavez Lourdes,999  W Marshall BLVD  San Bernardino CA 92405,800-468-1743,-118.50643,34.28073,POINT (-118.50643 34.28073)
6005018009,05/18/2021 12:00:00 AM,Single Family,232 W 61ST ST,LOS ANGELES,CA,90003,9,CALIBER HOME LOANS,VPR DEPARTMENT,213-345-6264,EDWARD ZUBIA,EDWARD ZUBIA,3540   wilshire BLVD  Los Angeles CA 90010,818-406-3611,-118.2772,33.98411,POINT (-118.2772 33.98411)
5037013007,10/14/2021 12:00:00 AM,Multi-Family,1254 W EXPOSITION BLVD,LOS ANGELES,CA,90007,8,Fay Servicing LLC - Eric Moore,Eric Moore,877-338-3791,Safeguard - Code Compliance,Code Compliance,7887   Safeguard Cir  Valley View OH 44125,800-852-8306,-118.29915,34.018,POINT (-118.29915 34.018)
6050018030,12/03/2021 12:00:00 AM,Single Family,759 E 97TH ST,LOS ANGELES,CA,90002,8,Celink,Cory Daggett,866-654-0020,J & J BOARD- UPS/FIVE BROTHERS,JAVIER ORTIZ,475  S Rall AVE  Bassett CA 91746,626-290-9017,-118.26101,33.94849,POINT (-118.26101 33.94849)
6048038011,01/05/2021 12:00:00 AM,Multi-Family,9805 S WILMINGTON AVE,LOS ANGELES,CA,90002,15,AJA CAPITAL INVESTMENTS LLC,Assumpta De Silva,626-824-9536,NULL,NULL,,NULL,-118.23913,33.94721,POINT (-118.23913 33.94721)
2106001032,01/04/2021 12:00:00 AM,Single Family,19927 W CANTARA ST,LOS ANGELES,CA,91306,3,FCI Lender Services,FCI Services,800-931-2424,"Incorp Services, Inc",Registrations Department,5716   Corsa Ave Suite 110   Westlake Village CA 91362,888-727-6303,-118.5676,34.21892,POINT (-118.5676 34.21892)
5307021005,01/14/2021 12:00:00 AM,Single Family,4415 N VAN HORNE AVE,LOS ANGELES,CA,90032,14,CALIFORNIA HOUSING FINANCE AGENCY,Property Preservation,800-669-0340,Safeguard,Edward Zubia,3540   WILSHIRE BLVD 1109 LOS ANGELES CA 90010,213-804-7437,-118.1696,34.09746,POINT (-118.1696 34.09746)
5312021051,09/02/2021 12:00:00 AM,Single Family,6210 N LOMITAS DR,LOS ANGELES,CA,90042,14,"Mr. Cooper/Nationstar Mortgage, LLC.",Mr. Cooper,888-456-0714,"Solid Foundation Properties, LLC.",Compliance Team,2690   Cobb PKWY A5379 SMYRNA GA 30080,844-488-7447,-118.17925,34.10669,POINT (-118.17925 34.10669)
4365001004,02/04/2021 12:00:00 AM,Single Family,11411 W AYRSHIRE ROAD,LOS ANGELES,CA,90049,11,Goldman Sachs Bank USA,Scott Sawyer,213-634-1004,MCS,MCS Standard Field Services LLC,4646   Natick AVE 201 Sherman Oaks CA 91403,323-363-4863,-118.46711,34.07116,POINT (-118.46711 34.07116)
5538014015,04/09/2021 12:00:00 AM,Single Family,873 N EDGEMONT ST,LOS ANGELES,CA,90029,13,"DOVENMUEHLE MORTGAGE, INC.",PROPERTY PRESERVATION,847-550-7410,Safeguard c/o Bron Inc Jefferson,Code Compliance,27720   Jefferson AVE 210 Temecula CA 92590,800-852-8306,-118.29623,34.08782,POINT (-118.29623 34.08782)
2376001011,01/21/2021 12:00:00 AM,Single Family,4148 N SUNSWEPT DR,LOS ANGELES,CA,91604,4,Aztec Financial,Chloe Allton,818-848-8960,Aztec Financial,Chloe Allton,2624  W MAGNOLIA  BLVD  BURBANK CA 91505,818-848-8960,-118.40584,34.14129,POINT (-118.40584 34.14129)
2276016021,03/24/2021 12:00:00 AM,Single Family,14533 W VALLEY VISTA BLVD,LOS ANGELES,CA,91403,4,Vista Land Properties LLC,Mark Wong,310-701-2775,NA/ Self managed,Mark Wong,2355   Westwood BLVD 526 Los Angeles CA 90064,310-701-2775,-118.45085,34.14725,POINT (-118.45085 34.14725)
6017029018,01/06/2021 12:00:00 AM,Multi-Family,2131 1/2 W 79TH ST,LOS ANGELES,CA,90047,8,PHH Mortgage Corporation,Marquita Bullock,888-820-6474,The Herac Group,Torres Rose,11030   Arrow RE  RANCHO CUCAMONGA CA 91730,909-481-1100,-118.31666,33.96739,POINT (-118.31666 33.96739)
5007019028,01/08/2021 12:00:00 AM,Single Family,5408 S WEST BLVD,LOS ANGELES,CA,90043,8,Select Portfolio Servicing,Select Portfolio Servicing,888-349-8964,Edward Zubia,edaward zubia,3540   wilshire BLVD  Los Angeles CA 90010,213-804-7437,-118.33541,33.99265,POINT (-118.33541 33.99265)
7404022003,01/25/2021 12:00:00 AM,Single Family,24610 S AVALON AVE,LOS ANGELES,CA,90744,15,Champion Mortgage,Jennifer Hathaway,972-894-2950,J & J BOARD- UPS/FIVE BROTHERS,JAVIER ORTIZ,475  S Rall AVE  Bassett CA 91746,626-290-9017,-118.26376,33.80242,POINT (-118.26376 33.80242)
5577007142,01/12/2021 12:00:00 AM,Single Family,3480 N BARHAM BLVD,LOS ANGELES,CA,90068,4,Select Portfolio Servicing,Select Portfolio Servicing,888-349-8964,Edward Zubia,edaward zubia,3540   wilshire BLVD  Los Angeles CA 90010,213-804-7437,-118.34199,34.1354,POINT (-118.34199 34.1354)
2325023033,06/24/2021 12:00:00 AM,Single Family,6451 N BELLAIRE AVE,LOS ANGELES,CA,91606,2,Specialized Loan Servicing LLC C/O Computershare on behalf of beneficiary,Computershare Management,720-241-7375,First Team Real Estate,Eddy Leon,20234   State ROAD  Cerritos CA 90703,562-461-1200,-118.40919,34.18819,POINT (-118.40919 34.18819)
4009009023,10/02/2021 12:00:00 AM,Single Family,2207 W 75TH ST,LOS ANGELES,CA,90043,8,Celink,Cory Daggett,866-654-0020,J & J BOARD- UPS/FIVE BROTHERS,JAVIER ORTIZ,475  S Rall AVE  Bassett CA 91746,626-290-9017,-118.31813,33.97198,POINT (-118.31813 33.97198)
2151011024,01/06/2021 12:00:00 AM,Single Family,5700 N MCDONIE AVE,LOS ANGELES,CA,91367,3,BROWN AMY C/O RUSHMORE LOAN MANAGEMENT SERVICES,Property Preservation,949-341-5601,SAFEGAURD PROPERTIES,EDWARD ZUBIA,3540   WILSHIRE BLVD 1109 LOS ANGELES CA 90010,213-383-2097,-118.57608,34.17426,POINT (-118.57608 34.17426)
5014027012,09/17/2021 12:00:00 AM,Multi-Family,4605 1/2 S 3RD AVE,LOS ANGELES,CA,90043,8,Celink,Cory Daggett,866-654-0020,J & J BOARD- UPS/FIVE BROTHERS,JAVIER ORTIZ,475  S Rall AVE  Bassett CA 91746,626-290-9017,-118.32044,34.00169,POINT (-118.32044 34.00169)
2427009016,04/20/2021 12:00:00 AM,Single Family,7319 W WOODROW WILSON DR,LOS ANGELES,CA,90046,4,GREGORY FUNDING,MARCUS BROWN,866-712-5698,EDWARD ZUBIA,EDWARD ZUBIA,3540   wilshire BLVD  Los Angeles CA 90010,213-804-7437,-118.35279,34.12337,POINT (-118.35279 34.12337)
4403011006,03/17/2021 12:00:00 AM,Single Family,213 N TIGERTAIL ROAD,LOS ANGELES,CA,90049,11,Mr. Cooper LLC,Paula Acosta,800-468-1743,"Solid Foundation Properties, LLC.",Compliance Team,2690   Cobb PKWY A5379 SMYRNA GA 30080,333-205-7447,-118.47927,34.06181,POINT (-118.47927 34.06181)
2531020007,02/02/2021 12:00:00 AM,Single Family,11955 W GAGER ST,LOS ANGELES,CA,91342,7,NEW AMERICAN FUNDING,KARLA HOWES,949-445-8824,SO CAL INSPECTORS INC,SUZANNE PHILLIPS,9525   Stewart and Gray RD  Downey CA 90241,949-445-8824,-118.39369,34.28076,POINT (-118.39369 34.28076)
2648010024,06/01/2021 12:00:00 AM,Single Family,14644 W HIAWATHA ST,LOS ANGELES,CA,91345,7,The Wilchfort Family Trust dtd 04/02/03 C/O RESS Financial Corporation,Bruce Beasley,951-270-0164,The Wilchfort Trust dtd 04/02/03,Izydor Wilchfort,14644   Hiawatha ST  Mission Hills CA 91345,310-493-8656,-118.45076,34.25933,POINT (-118.45076 34.25933)
6039001052,01/05/2021 12:00:00 AM,Multi-Family,9113 #3 S BARING CROSS ST 1-3,LOS ANGELES,CA,90044,8,Shellpoint Mortgage Servicing,Eric Moore,877-338-3791,Safeguard c/o Bron Inc Jefferson,Code Compliance,27720   Jefferson AVE 210 Temecula CA 92590,800-852-8306,-118.28946,33.95382,POINT (-118.28946 33.95382)
4118018140,04/23/2021 12:00:00 AM,Single Family,8110 W MANCHESTER AVE,LOS ANGELES,CA,90293,11,SN Servicing Corp,Eric Moore,877-338-3791,First Allegiance,John Concepcion,473   Broadway 5th Fl AVE  Bayonne NJ 7002,201-746-8715,-118.43709,33.95833,POINT (-118.43709 33.95833)
7452017043,03/08/2021 12:00:00 AM,Single Family,1445 W 1ST ST,SAN PEDRO,CA,90732,15,Mr. Cooper LLC,Paula Acosta,800-468-1743,Xome Field Services C/O New Beginning Properties Inc.,Lourdes Chavez,999  W Marshall BLVD  San Bernadino CA 92405,800-468-1743,-118.30744,33.74324,POINT (-118.30744 33.74324)
5453026008,12/18/2021 12:00:00 AM,Multi-Family,3417 E MERCED ST,LOS ANGELES,CA,90065,1,Reverse Mortgage Solutions,Monique White,866-503-5559,Carlos Sims,Carlos Sims,11820   Cherrylee DR  El Monte CA 91732,800-639-2151,-118.22187,34.09287,POINT (-118.22187 34.09287)
5101032008,01/06/2021 12:00:00 AM,Multi-Family,225 W 55TH ST,LOS ANGELES,CA,90037,9,The Bank of New York Mello,Doug Randall,303-470-3633,First Team Real Estate,Eddy Leon,20234   State ROAD  Cerritos CA 90703,562-461-1200,-118.27715,33.99251,POINT (-118.27715 33.99251)
2116017058,01/06/2021 12:00:00 AM,Single Family,7300 N BONNIE PL,LOS ANGELES,CA,91335,3,PHH Mortgage Corporation,Marquita Bullock,888-820-6474,Property Preservation Servicing LLC,Trevethan Aaron,27071   cabot RD  LAGUNA HILLS CA 92653,949-612-0342,-118.55516,34.20307,POINT (-118.55516 34.20307)
7426010014,01/05/2021 12:00:00 AM,Single Family,1022 E SANDISON ST,LOS ANGELES,CA,90744,15,JP Morgan Chase NA,Amy Lott,888-310-1506,Greenfield Property LLC,MCS LLC,4033   Stable Drive   Palmdale CA 93552,866-563-1100,-118.2504,33.79403,POINT (-118.2504 33.79403)
2616026024,01/31/2021 12:00:00 AM,Single Family,13857 W FIELDING ST,LOS ANGELES,CA,91331,7,Mr. Cooper,Paula Acosta,800-468-1743,"Solid Foundation Properties, LLC.",Compliance Team,2690   Cobb PKWY A5379 SMYRNA GA 30080,333-205-7447,-118.43513,34.26901,POINT (-118.43513 34.26901)
2634013026,01/29/2021 12:00:00 AM,Single Family,8700 N SHARP AVE,LOS ANGELES,CA,91352,6,Mr. Cooper,Paula Acosta,800-468-1743,"Solid Foundation Properties, LLC.",Compliance Team,2690   Cobb PKWY A5379 SMYRNA GA 30080,333-205-7447,-118.4049,34.22776,POINT (-118.4049 34.22776)
5035033022,01/13/2021 12:00:00 AM,Single Family,1719 W 38TH ST,LOS ANGELES,CA,90062,8,BSI Financial Services,Registration Department,814-827-4661,Remedy Field Services Inc,Agnes Mella,15615   Alton PKWY  IRVINE CA 92618,888-540-4490,-118.31155,34.01746,POINT (-118.31155 34.01746)
6030002007,01/05/2021 12:00:00 AM,Multi-Family,232 E 79TH ST,LOS ANGELES,CA,90003,9,Cenlar FSB,Eric Moore,877-338-3791,Safeguard,Code Compliance,27720   Jefferson AVE  Temecula CA 92590,877-338-3791,-118.27063,33.96776,POINT (-118.27063 33.96776)
2172033051,10/26/2021 12:00:00 AM,Single Family,21221 W MULHOLLAND DR,LOS ANGELES,CA,91364,3,"4 Towers Development, Inc.",Avi Raceah,818-591-4913,NULL,NULL,,NULL,-118.59516,34.14367,POINT (-118.59516 34.14367)
2228003025,01/14/2021 12:00:00 AM,Single Family,7337 N CALDUS AVE,LOS ANGELES,CA,91406,6,Wells Fargo Bank N.A.,Jenna Douglas,877-617-5274,LPS,Jenna Douglas,1003  E Brier DR  San Bernardino CA 92408,281-404-7816,-118.5158,34.20412,POINT (-118.5158 34.20412)
4306012006,04/22/2021 12:00:00 AM,Single Family,1629 S REEVES ST,LOS ANGELES,CA,90035,5,"Del Toro Loan Servicing, Inc.",LaTonya Coleman,619-474-5400,LRES Corp.,Kathy Golden,765   The City Drive South   Orange CA 92868,714-520-5737,-118.39651,34.0496,POINT (-118.39651 34.0496)
5213035020,02/01/2021 12:00:00 AM,Vacant Residential,4748 E TWINING ST,LOS ANGELES,CA,90032,14,"Cardenas Three, LLC",Elizabeth Velasquez,909-315-2746,"Cardenas Three, LLC",Elizabeth Velasquez,12223   Highland AVE  Rancho Cucamonga CA 91739,909-315-2746,-118.18129,34.08367,POINT (-118.18129 34.08367)
6119024008,02/10/2021 12:00:00 AM,Single Family,841 W 148TH ST,LOS ANGELES,CA,90247,15,Security National Servicing Corp,Eric Moore,877-338-3791,First Allegiance,John Concepcion,473   Broadway 5th Fl AVE  Bayonne NJ 7002,201-746-8715,-118.29064,33.89837,POINT (-118.29064 33.89837)
5117009013,02/02/2021 12:00:00 AM,Multi-Family,1620 1/2 E 33RD ST,LOS ANGELES,CA,90011,9,Mr. Cooper,Paula Acosta,800-468-1743,"Solid Foundation Properties, LLC.",Compliance Team,2690   Cobb PKWY A5379 SMYRNA GA 30080,333-205-7447,-118.24552,34.011,POINT (-118.24552 34.011)
6004030044,01/07/2021 12:00:00 AM,Single Family,625 W 59TH PL,LOS ANGELES,CA,90044,9,"DANCO, INC.",RONALD PERLSTEIN,310-842-8234,EDWARD ZUBIA,EDWARD ZUBIA,3540   wilshire BLVD  Los Angeles CA 90010,818-406-3611,-118.2847,33.98606,POINT (-118.2847 33.98606)
5477005009,08/17/2021 12:00:00 AM,Single Family,4924 E LINCOLN AVE,LOS ANGELES,CA,90042,1,Real Time Resolutions,DAVID ROSAS,888-895-0221,EDWARD ZUBIA,EDWARD ZUBIA,3540   wilshire BLVD  Los Angeles CA 90010,818-406-3611,-118.20839,34.12073,POINT (-118.20839 34.12073)
4103017028,01/06/2021 12:00:00 AM,Single Family,7136 S GLASGOW AVE,LOS ANGELES,CA,90045,11,The Bank of New York Mello,Doug Randall,303-470-3633,First Team Real Estate,Eddy Leon,20234   State ROAD  Cerritos CA 90703,562-461-1200,-118.37233,33.9711,POINT (-118.37233 33.9711)
5090012016,01/13/2021 12:00:00 AM,Single Family,929 S MUIRFIELD RD,LOS ANGELES,CA,90019,5,Select Portfolio Servicing,Select Portfolio Servicing,888-349-8964,Edward Zubia,edaward zubia,3540   wilshire BLVD  Los Angeles CA 90010,213-804-7437,-118.33081,34.05798,POINT (-118.33081 34.05798)
5108012008,01/08/2021 12:00:00 AM,Multi-Family,640 E 50TH ST,LOS ANGELES,CA,90011,9,"U.S. Bank National Association, as Trustee",Douglas Randall,303-470-3633,First Team Real Estate,Eddy Leon,20234   State ROAD  Cerritos CA 90703,562-461-1200,-118.26422,33.99743,POINT (-118.26422 33.99743)
2250022010,01/14/2021 12:00:00 AM,Single Family,15165   MAGNOLIA BLVD,LOS ANGELES,CA,91403,4,Select Portfolio Servicing,Select Portfolio Servicing,888-349-8964,Edward Zubia,edaward zubia,3540   wilshire BLVD  Los Angeles CA 90010,213-804-7437,-118.46287,34.16506,POINT (-118.46287 34.16506)
5422015020,11/02/2021 12:00:00 AM,Single Family,2287 W BAXTER ST,LOS ANGELES,CA,90039,13,Champion Mortgage,Brenda Ward,800-468-1743,Xome Field Services C/O New Beginning Properties Inc.,Lourdes Chavez,999  W Marshall BLVD  San Bernadino CA 92405,800-468-1743,-118.25987,34.09376,POINT (-118.25987 34.09376)
6042011026,11/08/2021 12:00:00 AM,Single Family,739 E 91ST ST,LOS ANGELES,CA,90002,9,Celink,Cory Daggett,866-654-0020,J & J BOARD- UPS/FIVE BROTHERS,JAVIER ORTIZ,475  S Rall AVE  Bassett CA 91746,626-290-9017,-118.26165,33.95394,POINT (-118.26165 33.95394)
2642004017,01/20/2021 12:00:00 AM,Single Family,9305 N DORRINGTON PL,LOS ANGELES,CA,91331,6,Specialized Loan Servicing LLC C/O Computershare on behalf of beneficiary,Computershare Management,720-241-7375,First Team Real Estate,Eddy Leon,20234   State ROAD  Cerritos CA 90703,562-461-1200,-118.44092,34.23755,POINT (-118.44092 34.23755)
4317004081,09/20/2021 12:00:00 AM,Single Family,1825 S WESTHOLME AVE 1-5,LOS ANGELES,CA,90025,5,Security National Servicing Corp,Eric Moore,877-338-3791,Safeguard,Code Compliance,27720   Jefferson AVE  Temecula CA 92590,877-338-3791,-118.42802,34.05341,POINT (-118.42802 34.05341)
5304015011,01/04/2021 12:00:00 AM,Single Family,771 E MONTECITO DR,LOS ANGELES,CA,90031,1,PennyMac Loan Services,Eric Moore,877-338-3791,Safeguard c/o Bron Inc Jefferson,Code Compliance,27720   Jefferson AVE 210 Temecula CA 92590,800-852-8306,-118.19921,34.09082,POINT (-118.19921 34.09082)
6069026050,03/21/2021 12:00:00 AM,Multi-Family,1730 1/2 E 114TH ST,LOS ANGELES,CA,90059,15,Mr. Cooper,Paula Acosta,800-468-1743,"Solid Foundation Properties, LLC.",Compliance Team,2690   Cobb PKWY A5379 SMYRNA GA 30080,844-488-7447,-118.24245,33.93101,POINT (-118.24245 33.93101)
2010007006,01/06/2021 12:00:00 AM,Single Family,8754 N FARRALONE AVE,LOS ANGELES,CA,93063,12,CARLO SCANDALIATO C/O RUSHMORE LOAN MANAGEMENT SERVICES,Property Preservation,949-341-5601,SAFEGUARD PROPERTIES,EDWARD ZUBIA,3540   WILSHIRE BLVD 1109 LOS ANGELES CA 90010,213-383-2097,-118.61035,34.23016,POINT (-118.61035 34.23016)
5563026019,01/08/2021 12:00:00 AM,Single Family,2001 N OAKSTONE WAY,HOLLYWOOD,CA,90046,4,CALIBER HOME LOANS,SHIRIN SHIHADI,214-874-4174,MCS,Code Compliance,350   HIGHLAND DR  LEWISVILLE TX 75067,813-387-1100,-118.38375,34.10701,POINT (-118.38375 34.10701)
2717013048,03/18/2021 12:00:00 AM,Single Family,18639 W CELTIC ST,LOS ANGELES,CA,91326,12,Specialized Loan Servicing LLC C/O Computershare on behalf of beneficiary,Computershare Management,720-241-7375,First Team Real Estate,Eddy Leon,20234   State ROAD  Cerritos CA 90703,562-461-1200,-118.53863,34.26886,POINT (-118.53863 34.26886)
2350002016,04/08/2021 12:00:00 AM,Single Family,11558 W KILLION ST,LOS ANGELES,CA,91601,2,SN Servicing Corporation,Ashlee McKenney,707-476-2622,First Allegiance,Caroline Grimm,9447   Firestone BLVD  Downey CA 90241,652-237-6102,-118.38423,34.17117,POINT (-118.38423 34.17117)
2122003011,11/02/2021 12:00:00 AM,Single Family,6927 N YARMOUTH AVE,LOS ANGELES,CA,91335,4,Specialized Loan Servicing LLC C/O Computershare on behalf of beneficiary,Computershare Management,720-241-7375,First Team Real Estate,Eddy Leon,20234   State ROAD  Cerritos CA 90703,562-461-1200,-118.51982,34.19646,POINT (-118.51982 34.19646)
7422019028,01/14/2021 12:00:00 AM,Single Family,406 E M ST,LOS ANGELES,CA,90744,15,Select Portfolio Servicing,Select Portfolio Servicing,888-349-8964,Edward Zubia,edaward zubia,3540   wilshire BLVD  Los Angeles CA 90010,213-804-7437,-118.25809,33.78895,POINT (-118.25809 33.78895)
2201012003,01/26/2021 12:00:00 AM,Single Family,17346 W BURTON ST,LOS ANGELES,CA,91325,12,Select Portfolio Servicing,Select Portfolio Servicing,888-349-8964,Edward Zubia,edaward zubia,3540   wilshire BLVD  Los Angeles CA 90010,213-804-7437,-118.51145,34.22005,POINT (-118.51145 34.22005)
5451015002,11/30/2021 12:00:00 AM,Single Family,356 W MT WASHINGTON DR,LOS ANGELES,CA,90065,1,Celink,Cory Daggett,866-654-0020,J & J BOARD- UPS/FIVE BROTHERS,JAVIER ORTIZ,475  S Rall AVE  Bassett CA 91746,626-290-9017,-118.21405,34.09493,POINT (-118.21405 34.09493)
7451018010,11/30/2021 12:00:00 AM,Single Family,535 W 3RD ST,SAN PEDRO,CA,90731,15,Celink,Cory Daggett,866-654-0020,J & J BOARD- UPS/FIVE BROTHERS,JAVIER ORTIZ,475  S Rall AVE  Bassett CA 91746,626-290-9017,-118.28869,33.74137,POINT (-118.28869 33.74137)
4379035177,01/04/2021 12:00:00 AM,Single Family,3028  GREENTREE,LOS ANGELES,CA,90077,5,Shellpoint Mortgage Servicing,Eric Moore,877-338-3791,Safeguard,Code Compliance,27720   Jefferson AVE  Temecula CA 92590,877-338-3791,-118.44788,34.12943,POINT (-118.44788 34.12943)
2293011007,06/11/2021 12:00:00 AM,Single Family,3454 N CARIBETH DR,LOS ANGELES,CA,91436,4,RED DRAGON INVESTMENT AND JR JAINCLAN FOUNDATION,SCHLOMO SCHMUEL,818-308-4443,Gary & Nancy Mastor,,12644   Bradford PL  Granada Hills CA 91344,760-341-2433,-118.49234,34.13422,POINT (-118.49234 34.13422)
5028007103,10/29/2021 12:00:00 AM,Single Family,4541 W DON RICARDO DR,LOS ANGELES,CA,90008,8,Celink,Cory Daggett,866-654-0020,J & J BOARD- UPS/FIVE BROTHERS,JAVIER ORTIZ,475  S Rall AVE  Bassett CA 91746,626-290-9017,-118.35212,34.01116,POINT (-118.35212 34.01116)
2723012044,01/06/2021 12:00:00 AM,Single Family,22215 W JAMES ALAN CIR,CHATSWORTH,CA,91311,12,US Bank as Trustee of the LSF9 Master Participation Trust,Ryan Curran,800-516-1553,Northsight Management - AMR,Ryan Curran,16820   Ventura BLVD  Ventura CA 91436,800-516-1553,-118.61214,34.26061,POINT (-118.61214 34.26061)
2604022026,11/30/2021 12:00:00 AM,Single Family,15230 W TYLER ST,LOS ANGELES,CA,91342,7,Celink,Cory Daggett,866-654-0020,NULL,NULL,,NULL,-118.46442,34.30087,POINT (-118.46442 34.30087)
2421003004,03/25/2021 12:00:00 AM,Single Family,4944 N DENNY AVE,LOS ANGELES,CA,91601,2,Mr. Cooper,Paula Acosta,800-468-1743,"Solid Foundation Properties, LLC.",Compliance Team,2690   Cobb PKWY A5379 SMYRNA GA 30080,333-205-7447,-118.36466,34.16066,POINT (-118.36466 34.16066)
6052016033,01/11/2021 12:00:00 AM,Single Family,207 E CENTURY BLVD,LOS ANGELES,CA,90003,8,"LoanCare, LLC",Natalie Alexander,800-919-6227,ServiceLink Field Services,Jennifer Spies,10385   Westmoor DR  Westminster CO 80021,303-653-8258,-118.27146,33.94575,POINT (-118.27146 33.94575)
6001023011,01/11/2021 12:00:00 AM,Single Family,6213 S HAAS AVE,LOS ANGELES,CA,90047,8,Specialized Loan Servicing LLC C/O Computershare on behalf of beneficiary,Computershare Management,720-241-7375,First Team Real Estate,Eddy Leon,20234   State ROAD  Cerritos CA 90703,562-461-1200,-118.31691,33.983,POINT (-118.31691 33.983)
5219022029,11/24/2021 12:00:00 AM,Single Family,3548 N COPELAND PL,LOS ANGELES,CA,90032,14,Celink,Cory Daggett,866-654-0020,NULL,NULL,,NULL,-118.16538,34.08679,POINT (-118.16538 34.08679)
2552048008,02/05/2021 12:00:00 AM,Single Family,7393 W PERIGORD CT,LOS ANGELES,CA,91042,7,Specialized Loan Servicing LLC C/O Computershare on behalf of beneficiary,Computershare Management,720-241-7375,First Team Real Estate,Eddy Leon,20234   State ROAD  Cerritos CA 90703,562-461-1200,-118.29487,34.27216,POINT (-118.29487 34.27216)
5544009021,01/13/2021 12:00:00 AM,Single Family,5330 W LOMA LINDA AVE 1-8,LOS ANGELES,CA,90027,13,BSI Financial Services,Registration Department,814-827-4661,BSI Financial Services,Mirrie Mitchell,314  S Franklin ST 2F Titusville PA 16354,866-581-4513,-118.30604,34.10272,POINT (-118.30604 34.10272)
2224007057,02/02/2021 12:00:00 AM,Single Family,7015 N GLORIA AVE,VAN NUYS,CA,91406,6,Mr. Cooper,Paula Acosta,800-468-1743,Safeguard,Code Compliance,27720   Jefferson AVE  Temecula CA 92590,877-338-3791,-118.47942,34.19803,POINT (-118.47942 34.19803)
2615025012,01/06/2021 12:00:00 AM,Single Family,10831 N ARLETA AVE,LOS ANGELES,CA,91345,7,M&T Bank,Eric Moore,877-338-3791,Safeguard,Code Compliance,27720   Jefferson AVE  Temecula CA 92590,877-338-3791,-118.45122,34.26684,POINT (-118.45122 34.26684)
5044016043,01/13/2021 12:00:00 AM,Multi-Family,3436 1/2 S 8TH AVE,LOS ANGELES,CA,90018,10,PNC MORTGAGE PRESALE,JENNIFER SMITH,937-910-1887,SAFEGAURD PROPERTIES,EDWARD ZUBIA,3540   WILSHIRE BLVD 1109 LOS ANGELES CA 90010,213-383-2097,-118.32583,34.02436,POINT (-118.32583 34.02436)
2166032030,01/15/2021 12:00:00 AM,Single Family,20701 W DEFOREST ST,LOS ANGELES,CA,91364,3,Select Portfolio Servicing,Select Portfolio Servicing,888-349-8964,Edward Zubia,edaward zubia,3540   wilshire BLVD  Los Angeles CA 90010,213-804-7437,-118.58505,34.16008,POINT (-118.58505 34.16008)
2536011037,03/15/2021 12:00:00 AM,Non-Residential,12600   CARL ST,LOS ANGELES,CA,91331,7,"Residential First Capital, servicer for private Beneficiaries",Richard Bustamante,949-783-7920,"Residential First Capital, Servicer for the Beneficiaries",Richard Bustamante,20151  SW Birch ST 175 Newport Beach CA 92660,949-783-7920,-118.407346,34.274385,POINT (-118.407346 34.274385)
5114019024,01/04/2021 12:00:00 AM,Multi-Family,986 E 32ND ST 1-4,LOS ANGELES,CA,90011,9,Shellpoint Mortgage Servicing,Eric Moore,877-338-3791,Safeguard,Code Compliance,27720   Jefferson AVE  Temecula CA 92590,877-338-3791,-118.25839,34.01468,POINT (-118.25839 34.01468)
4242031005,03/22/2021 12:00:00 AM,Multi-Family,1325 E VENICE BLVD,LOS ANGELES,CA,90291,11,OSM Loan Acquisition IX,Stephanie Doner,805-701-7177,ISM Management Company,Stephanie Doner,1516  S Bundy DR  Los Angeles CA 90025,805-701-7177,-118.44953,33.99592,POINT (-118.44953 33.99592)
2712002005,01/05/2021 12:00:00 AM,Single Family,17732 W SAN FERNANDO MISSION BLVD,LOS ANGELES,CA,91344,12,Fay Servicing,Eric Moore,877-338-3791,MCS,Code Compliance,350   HIGHLAND DR  LEWISVILLE TX 75067,813-387-1100,-118.52077,34.27196,POINT (-118.52077 34.27196)
4431018001,03/17/2021 12:00:00 AM,Single Family,17536 W CAMINO DE YATASTO,LOS ANGELES,CA,90272,11,Mr. Cooper,Paula Acosta,800-468-1743,"Solid Foundation Properties, LLC.",Compliance Team,2690   Cobb PKWY A5379 SMYRNA GA 30080,333-205-7447,-118.57194,34.07707,POINT (-118.57194 34.07707)
5177004017,01/29/2021 12:00:00 AM,Single Family,1207 N EVERGREEN AVE,LOS ANGELES,CA,90033,14,Mr. Cooper,Paula Acosta,800-468-1743,Xome Field Services C/O New Beginning Properties Inc.,Lourdes Chavez,999  W Marshall BLVD  San Bernadino CA 92405,800-468-1743,-118.19523,34.05327,POINT (-118.19523 34.05327)
5183009005,05/03/2021 12:00:00 AM,Single Family,2215 E 2ND ST,LOS ANGELES,CA,90033,14,Fay Servicing,Eric Moore,877-338-3791,Safeguard,Code Compliance,27720   Jefferson AVE  Temecula CA 92590,877-338-3791,-118.21252,34.04334,POINT (-118.21252 34.04334)
2013015018,01/04/2021 12:00:00 AM,Single Family,7643 N SAUSALITO AVE,LOS ANGELES,CA,93063,12,Shellpoint Mortgage Servicing,Eric Moore,877-338-3791,Safeguard,Code Compliance,27720   Jefferson AVE  Temecula CA 92590,877-338-3791,-118.61585,34.20969,POINT (-118.61585 34.20969)
5555014005,01/08/2021 12:00:00 AM,Single Family,8424 W CARLTON WAY,HOLLYWOOD,CA,90069,4,U.S. Bank N.A.,Select Portfolio Servicing,888-349-8964,Edward Zubia,edaward zubia,3540   wilshire BLVD  Los Angeles CA 90010,213-804-7437,-118.37457,34.09781,POINT (-118.37457 34.09781)
4321014005,01/04/2021 12:00:00 AM,Single Family,2018 S GLENDON AVE,LOS ANGELES,CA,90025,5,Shellpoint Mortgage Servicing,Eric Moore,877-338-3791,Safeguard,Code Compliance,27720   Jefferson AVE  Temecula CA 92590,877-338-3791,-118.43268,34.04677,POINT (-118.43268 34.04677)
5686010028,04/06/2021 12:00:00 AM,Single Family,1836 W CHICKASAW AVE,LOS ANGELES,CA,90041,14,PHH Mortgage/Ocwen Financial Corporation,Marquita Bullock,561-682-7547,Guardian Asset Management,Colleen McEntee,2300  E Lincoln HWY  Langhorne PA 19047,267-825-0283,-118.20704,34.13758,POINT (-118.20704 34.13758)
5110018018,01/05/2021 12:00:00 AM,Single Family,160 W 48TH ST,LOS ANGELES,CA,90037,9,JB NUTTER & COMPANY,CINDY COMBS,816-531-5642,SAFEGAURD PROPERTIES,EDWARD ZUBIA,3540   WILSHIRE BLVD 1109 LOS ANGELES CA 90010,213-383-2097,-118.2761,33.99902,POINT (-118.2761 33.99902)
5524009016,10/28/2021 12:00:00 AM,Single Family,712 N LAS PALMAS AVE,LOS ANGELES,CA,90038,13,Specialized Loan Servicing LLC C/O Computershare on behalf of beneficiary,Computershare Management,720-241-7375,First Team Real Estate,Eddy Leon,20234   State ROAD  Cerritos CA 90703,562-461-1200,-118.33611,34.0838,POINT (-118.33611 34.0838)
5464021019,01/14/2021 12:00:00 AM,Single Family,3546 N DIVISION ST,LOS ANGELES,CA,90065,1,Wells Fargo Bank N.A.,Jenna Douglas,877-617-5274,Lender Processing Services,Jenna Douglas,1003  E Brier DR  San Bernardino CA 92408,877-617-8274,-118.22437,34.10692,POINT (-118.22437 34.10692)
2309005016,10/25/2021 12:00:00 AM,Single Family,7831 N LAURELGROVE AVE,LOS ANGELES,CA,91605,2,Celink,Cory Daggett,866-654-0020,J & J BOARD- UPS/FIVE BROTHERS,JAVIER ORTIZ,475  S Rall AVE  Bassett CA 91746,626-290-9017,-118.40102,34.21313,POINT (-118.40102 34.21313)
2308019007,03/25/2021 12:00:00 AM,Single Family,12400 W ROSCOE BLVD,LOS ANGELES,CA,91352,2,Mr. Cooper,Paula Acosta,800-468-1743,Xome Field Services C/O New Beginning Properties Inc.,Lourdes Chavez,999  W Marshall BLVD  San Bernadino CA 92405,800-468-1743,-118.4034,34.22149,POINT (-118.4034 34.22149)
2041002009,01/06/2021 12:00:00 AM,Single Family,23550 W TIARA ST,LOS ANGELES,CA,91367,3,JP Morgan Chase NA,Amy Lott,888-310-1506,Greenfield Property LLC,MCS LLC,4033   Stable Drive   Palmdale CA 93552,866-563-1100,-118.64018,34.17809,POINT (-118.64018 34.17809)
5514006042,01/08/2021 12:00:00 AM,Single Family,451 N LAUREL AVE,LOS ANGELES,CA,90048,5,Select Portfolio Servicing,Select Portfolio Servicing,888-349-8964,Edward Zubia,edaward zubia,3540   wilshire BLVD  Los Angeles CA 90010,213-804-7437,-118.36491,34.07966,POINT (-118.36491 34.07966)
4378016008,01/07/2021 12:00:00 AM,Single Family,2501 N ROSCOMARE RD,LOS ANGELES,CA,90077,5,Carrington Mortgage Services,code compliance,866-563-1100,Pinelands Preservation,Aaron Noble,1906   Irvine AVE  Newport Beach CA 92660,949-294-8778,-118.46354,34.12243,POINT (-118.46354 34.12243)
5579028015,01/29/2021 12:00:00 AM,Single Family,3405 N NORTH KNOLL DR,LOS ANGELES,CA,90068,4,Mr. Cooper,Paula Acosta,800-468-1743,"Solid Foundation Properties, LLC.",Compliance Team,2690   Cobb PKWY A5379 SMYRNA GA 30080,333-205-7447,-118.3426,34.13085,POINT (-118.3426 34.13085)
5047003006,01/06/2021 12:00:00 AM,Single Family,5607 W SUNLIGHT PL,LOS ANGELES,CA,90016,10,PHH Mortgage Corporation,Marquita Bullock,888-820-6474,Property Preservation Servicing LLC,Trevethan Aaron,27071   cabot RD  LAGUNA HILLS CA 92653,949-612-0342,-118.36737,34.02228,POINT (-118.36737 34.02228)
2502019015,09/20/2021 12:00:00 AM,Single Family,13744 N DRONFIELD AVE,LOS ANGELES,CA,91342,7,LoanCare,ERIC MOORE,877-338-3791,Safeguard,Code Compliance,27720   Jefferson AVE  Temecula CA 92590,877-338-3791,-118.45497,34.32223,POINT (-118.45497 34.32223)
6083009036,01/06/2021 12:00:00 AM,Multi-Family,219 1/2 E 116TH PL,LOS ANGELES,CA,90061,15,Shellpoint Mortgage Servicing,Eric Moore,877-338-3791,Safeguard,Code Compliance,27720   Jefferson AVE  Temecula CA 92590,877-338-3791,-118.2711,33.92838,POINT (-118.2711 33.92838)
2507004083,01/06/2021 12:00:00 AM,Single Family,12567 N BRADLEY AVE,LOS ANGELES,CA,91342,7,M&T Bank,Eric Moore,877-338-3791,Safeguard,Code Compliance,27720   Jefferson AVE  Temecula CA 92590,877-338-3791,-118.45136,34.29877,POINT (-118.45136 34.29877)
2130022029,08/08/2021 12:00:00 AM,Single Family,7107 N TUNNEY AVE,LOS ANGELES,CA,91335,3,Real Time Resolutions,DAVID ROSAS,888-895-0221,EDWARD ZUBIA,EDWARD ZUBIA,3540   wilshire BLVD  Los Angeles CA 90010,818-406-3611,-118.55712,34.19946,POINT (-118.55712 34.19946)
5565030006,03/16/2021 12:00:00 AM,Single Family,8045 W BULWER DR,LOS ANGELES,CA,90046,4,Specialized Loan Servicing LLC C/O Computershare on behalf of beneficiary,Computershare Management,720-241-7375,NULL,NULL,,NULL,-118.37366,34.11983,POINT (-118.37366 34.11983)
6022006014,01/08/2021 12:00:00 AM,Single Family,112 E 76TH PL,LOS ANGELES,CA,90003,9,U.S. Bank N.A.,Select Portfolio Servicing,888-349-8964,Edward Zubia,edaward zubia,3540   wilshire BLVD  Los Angeles CA 90010,213-804-7437,-118.27337,33.97036,POINT (-118.27337 33.97036)
2410002021,09/13/2021 12:00:00 AM,Multi-Family,7422 1/2 N VINELAND AVE,SUN VALLEY,CA,91352,2,Buenpaso Productions Inc.,Ken Graiwer,818-627-5363,CAL Union Funding,Dacid Lerman,6400   Laurel Canyon BLVD 230 North Hollywood CA 91606,818-672-5363,-118.37012,34.20556,POINT (-118.37012 34.20556)
4410023023,05/24/2021 12:00:00 AM,Single Family,222 S AMALFI DR,LOS ANGELES,CA,90402,11,"Anchor Fund Holdings, LLC",Angela Carroll,310-395-0010,Coldwell Banker,Eddy Leon,1650   Ximeno AVE 120 Long Beach CA 90804,888-627-2256,-118.51328,34.03229,POINT (-118.51328 34.03229)
6065003019,01/13/2021 12:00:00 AM,Single Family,10510 S MARY AVE,LOS ANGELES,CA,90002,15,BSI Financial Services,Registration Department,814-827-4661,The Herac Group,Torres Rose,11030   Arrow RE  RANCHOCUCAMONGA CA 91730,949-381-3495,-118.24948,33.94057,POINT (-118.24948 33.94057)
2672005043,01/05/2021 12:00:00 AM,Single Family,15934 W SUNBURST ST,LOS ANGELES,CA,91343,12,Cenlar FSB,Eric Moore,877-338-3791,Safeguard,Code Compliance,27720   Jefferson AVE  Temecula CA 92590,877-338-3791,-118.47963,34.23452,POINT (-118.47963 34.23452)
2628025016,01/04/2021 12:00:00 AM,Single Family,12964 W WENTWORTH ST,LOS ANGELES,CA,91331,6,Shellpoint Mortgage Servicing,Eric Moore,877-338-3791,Safeguard,Code Compliance,27720   Jefferson AVE  Temecula CA 92590,877-338-3791,-118.41505,34.23412,POINT (-118.41505 34.23412)
5029025001,01/06/2021 12:00:00 AM,Single Family,5220 W SANCHEZ DR,LOS ANGELES,CA,90008,10,Carrington Mortgage Services,code compliance,866-563-1100,Greenfield Property LLC,MCS LLC,4033   Stable Drive   Palmdale CA 93552,866-563-1100,-118.35861,34.01457,POINT (-118.35861 34.01457)
6023022024,10/21/2021 12:00:00 AM,Multi-Family,833 E 77TH ST,LOS ANGELES,CA,90001,9,Specialized Loan Servicing LLC C/O Computershare on behalf of beneficiary,Computershare Management,720-241-7375,First Team Real Estate,Eddy Leon,20234   State ROAD  Cerritos CA 90703,562-461-1200,-118.25963,33.96948,POINT (-118.25963 33.96948)
2368004075,01/29/2021 12:00:00 AM,Single Family,12021 W GUERIN ST 1-31,LOS ANGELES,CA,91604,4,Mr. Cooper,Paula Acosta,800-468-1743,"Solid Foundation Properties, LLC.",Compliance Team,2690   Cobb PKWY A5379 SMYRNA GA 30080,333-205-7447,-118.3933,34.1461,POINT (-118.3933 34.1461)
5016033001,07/13/2021 12:00:00 AM,Multi-Family,5009 S HALLDALE AVE,LOS ANGELES,CA,90062,8,Security National Servicing Corp,Eric Moore,877-338-3791,First Allegiance,John Concepcion,473   Broadway  5th F Bayonne NJ 7002,201-746-8715,-118.30248,33.99787,POINT (-118.30248 33.99787)
2680021047,07/07/2021 12:00:00 AM,Single Family,16313 W JERSEY ST,LOS ANGELES,CA,91344,12,Statebridge,Bryce Fendall,720-697-6421,Rushmore Loan Management Services LLC,Customer Center,15480   Luguna Canyon RD  Irvine CA 92618,888-504-6700,-118.48725,34.26711,POINT (-118.48725 34.26711)
5054018015,01/05/2021 12:00:00 AM,Single Family,2320 S RAYMOND AVE,LOS ANGELES,CA,90007,8,Security National Servicing Corp,Eric Moore,877-338-3791,Safeguard,Code Compliance,27720   Jefferson AVE  Temecula CA 92590,877-338-3791,-118.29741,34.03478,POINT (-118.29741 34.03478)
5023031010,10/25/2021 12:00:00 AM,Single Family,4320 S 4TH AVE,LOS ANGELES,CA,90008,10,Celink,Cory Daggett,866-654-0020,J & J BOARD- UPS/FIVE BROTHERS,JAVIER ORTIZ,475  S Rall AVE  Bassett CA 91746,626-290-9017,-118.32126,34.00483,POINT (-118.32126 34.00483)
2625029012,01/22/2021 12:00:00 AM,Single Family,13588 W WINGO ST,LOS ANGELES,CA,91331,6,NEW AMERICAN FUNDING,KARLA HOWES,949-445-8824,SO CAL INSPECTORS INC,SUZANNE PHILLIPS,9525   Stewart and Gray RD  Downey CA 90241,949-445-8824,-118.42883,34.2377,POINT (-118.42883 34.2377)
6037010014,11/03/2021 12:00:00 AM,Single Family,8956 S DALTON AVE,LOS ANGELES,CA,90047,8,PennyMac Loan Services,Eric Moore,877-338-3791,Safeguard,Code Compliance,27720   Jefferson AVE  Temecula CA 92590,877-338-3791,-118.30343,33.95475,POINT (-118.30343 33.95475)
6057012002,09/17/2021 12:00:00 AM,Single Family,1857 W 94TH PL,LOS ANGELES,CA,90047,8,"U.S. BANK, NATIONAL ASSOCIATION AS LEGAL TITLE TRUSTEE FOR TRUMAN 2016 SC6 TITLE TRUST",SEE TDUS,310-777-6375,"The Harvey Group, Inc.",Joyce Essex Harvey,301  N Canon DR E Beverly HIlls CA 90210,310-777-6375,-118.31044,33.95062,POINT (-118.31044 33.95062)
5585029024,02/03/2021 12:00:00 AM,Vacant Residential,2311 N VASANTA WAY,LOS ANGELES,CA,90068,4,Platinum Loan Servicing,Karen Larson,818-222-5222,NULL,NULL,,NULL,-118.32356,34.11278,POINT (-118.32356 34.11278)
5060025010,12/07/2021 12:00:00 AM,Single Family,2212 S 5TH AVE,LOS ANGELES,CA,90018,10,Champion Mortgage,Tina Simmons,972-894-9993,Carlos Sims,Carlos Sims,11820   Cherrylee DR  El Monte CA 91732,800-639-2151,-118.32231,34.03654,POINT (-118.32231 34.03654)
2644025106,01/04/2021 12:00:00 AM,Single Family,9625 N SYLMAR AVE,LOS ANGELES,CA,91402,6,OK LLC,jeanie bedrosian,310-994-2900,"O.K.,LLC",Oleg Khersonsky,17337   VENTURA BLVD 318 ENCINO CA 91316,818-322-0587,-118.44756,34.24506,POINT (-118.44756 34.24506)
2761032029,03/25/2021 12:00:00 AM,Single Family,19640 W KINZIE ST,LOS ANGELES,CA,91324,12,Mr. Cooper,Paula Acosta,800-468-1743,"Solid Foundation Properties, LLC.",Compliance Team,2690   Cobb PKWY A5379 SMYRNA GA 30080,333-205-7447,-118.56176,34.24847,POINT (-118.56176 34.24847)
5501017022,02/04/2021 12:00:00 AM,Multi-Family,188 1/2 S VIRGIL AVE,LOS ANGELES,CA,90004,13,Goldman Sachs Bank USA,Scott Sawyer,213-634-1004,NULL,NULL,,NULL,-118.28658,34.07092,POINT (-118.28658 34.07092)
2787029004,01/01/2021 12:00:00 AM,Single Family,17646 W RAYMER ST,LOS ANGELES,CA,91325,12,RUSHMORE LOAN MANAGEMENT SERVICES,Property Preservation,949-341-5601,Safeguard Properties,Edward Zubia,3540   wilshire BLVD  Los Angeles CA 90010,213-383-2097,-118.51919,34.2265,POINT (-118.51919 34.2265)
4301014009,08/17/2021 12:00:00 AM,Single Family,2850 S REYNIER AVE,LOS ANGELES,CA,90034,10,RUSHMORE LOAN MANAGEMENT SERVICES,PROPERTY PRESERVATION,949-341-5601,EDWARD ZUBIA,EDWARD ZUBIA,3540   wilshire BLVD  Los Angeles CA 90010,818-406-3611,-118.38627,34.03486,POINT (-118.38627 34.03486)
6050014025,01/14/2021 12:00:00 AM,Single Family,822 E 95TH ST,LOS ANGELES,CA,90002,8,NATIONS DIRECT MORTGAGE,Property Preservation,800-669-0340,"Sables Servco, LLC",Jesse Talavera,30   Corporate Park  450 Irvine CA 92606,714-580-8567,-118.25999,33.95013,POINT (-118.25999 33.95013)
2271008010,08/20/2021 12:00:00 AM,Single Family,4458 N MAMMOTH AVE,LOS ANGELES,CA,91423,4,Specialized Loan Servicing LLC C/O Computershare on behalf of beneficiary,Computershare Management,720-241-7375,First Team Real Estate,Eddy Leon,20234   State ROAD  Cerritos CA 90703,562-461-1200,-118.43238,34.15192,POINT (-118.43238 34.15192)
6087002011,08/09/2021 12:00:00 AM,Single Family,216 W IMPERIAL HWY,LOS ANGELES,CA,90061,15,Select Portfolio Servicing,Select Portfolio Servicing,888-349-8964,edward zubia,Edward Zubia,3540   willshire BLVD  los angeles CA 90010,213-804-7437,-118.27672,33.93085,POINT (-118.27672 33.93085)
2502027071,03/15/2021 12:00:00 AM,Single Family,15115 W ROXFORD ST,LOS ANGELES,CA,91342,7,PHH Mortgage Corporation,Marquita Bullock,888-820-6474,The Herac Group,Torres Rose,11030   Arrow RE  RANCHO CUCAMONGA CA 91730,909-481-1100,-118.46279,34.31955,POINT (-118.46279 34.31955)
5063014028,09/29/2021 12:00:00 AM,Single Family,2444 S BURNSIDE AVE,LOS ANGELES,CA,90016,10,Reverse Mortgage Solutions,Monique White,866-503-5559,Carlos Sims,Carlos Sims,11820   Cherrylee DR  El Monte CA 91732,800-639-2151,-118.35946,34.03443,POINT (-118.35946 34.03443)
2136024009,12/13/2021 12:00:00 AM,Single Family,20350 W MOBILE ST,LOS ANGELES,CA,91306,3,Reverse Mortgage Solutions,Shelly Martinez,281-404-7962,Guardian Asset Management,Gina Butler,2021   Hartel AVE  Levittown PA 19057,888-872-9094,-118.57713,34.18994,POINT (-118.57713 34.18994)
5190022027,01/25/2021 12:00:00 AM,Multi-Family,3319 E HUNTER ST,LOS ANGELES,CA,90023,14,Freedom Mortgage,Shannon Powell,317-537-3714,Greenfield Property LLC,MCS LLC,4033   Stable Drive   Palmdale CA 93552,866-563-1100,-118.2071,34.02067,POINT (-118.2071 34.02067)
5015033008,01/25/2021 12:00:00 AM,Single Family,4823 S ARLINGTON AVE,LOS ANGELES,CA,90043,8,Freedom Mortgage,Shannon Powell,317-537-3714,Greenfield Property LLC,MCS LLC,4033   Stable Drive   Palmdale CA 93552,866-563-1100,-118.31829,33.99928,POINT (-118.31829 33.99928)
2780006075,03/21/2021 12:00:00 AM,Single Family,20737 W ROSCOE BLVD,LOS ANGELES,CA,91306,3,Mr. Cooper,Paula Acosta,800-468-1743,"Solid Foundation Properties, LLC.",Compliance Team,2690   Cobb PKWY A5379 SMYRNA GA 30080,333-205-7447,-118.58534,34.22014,POINT (-118.58534 34.22014)
5135032018,01/06/2021 12:00:00 AM,Multi-Family,1415 S VALENCIA ST,LOS ANGELES,CA,90015,1,PHH Mortgage Corporation,Marquita Bullock,888-820-6474,Property Preservation Servicing LLC,Trevethan Aaron,27071   cabot RD  LAGUNA HILLS CA 92653,949-612-0342,-118.27623,34.04179,POINT (-118.27623 34.04179)
2611026012,01/14/2021 12:00:00 AM,Single Family,14919 W HUBBARD ST,LOS ANGELES,CA,91342,7,Wells Fargo Bank N.A.,Jenna Douglas,877-617-5274,LPS,Jenna Douglas,1003  E Brier DR  San Bernardino CA 92408,281-404-7816,-118.4565,34.28548,POINT (-118.4565 34.28548)
2689021016,01/04/2021 12:00:00 AM,Single Family,16666 W BRYANT ST,LOS ANGELES,CA,91343,12,Cenlar FSB,Eric Moore,877-338-3791,Safeguard,Code Compliance,27720   Jefferson AVE  Temecula CA 92590,877-338-3791,-118.49603,34.22745,POINT (-118.49603 34.22745)
2153023009,12/31/2021 12:00:00 AM,Single Family,6115 N MELVIN AVE,LOS ANGELES,CA,91356,3,Norman Weinstock,Norman Weinstock,818-591-0450,Norman Weinstock,Norman Weinstock,3826   Charthouse CIR  Westlake Village CA 91361,818-318-1074,-118.56024,34.18153,POINT (-118.56024 34.18153)
4330013029,01/12/2021 12:00:00 AM,Single Family,1251 S DANIELS DR,LOS ANGELES,CA,90035,5,Select Portfolio Servicing,Select Portfolio Servicing,888-349-8964,Edward Zubia,edaward zubia,3540   wilshire BLVD  Los Angeles CA 90010,213-804-7437,-118.4012,34.05496,POINT (-118.4012 34.05496)
2322016030,09/22/2021 12:00:00 AM,Single Family,11810 W GILMORE ST,LOS ANGELES,CA,91606,2,"Charles H. Blaauw and Roxanne Blaauw, Trustees of the Blaauw Family Trust dated December 10, 2009",Charles Blaauw,310-766-1863,Equity Wave Lending,Blanca Garibay,2355   Main ST 230 Irvine CA 92614,949-252-0025,-118.39038,34.18741,POINT (-118.39038 34.18741)
5005023021,11/24/2021 12:00:00 AM,Single Family,5727 S ST ANDREWS PL,LOS ANGELES,CA,90062,8,Celink,Cory Daggett,866-654-0020,J & J BOARD- UPS/FIVE BROTHERS,JAVIER ORTIZ,475  S Rall AVE  Bassett CA 91746,626-290-9017,-118.31148,33.99018,POINT (-118.31148 33.99018)
5570001008,01/15/2021 12:00:00 AM,Single Family,2695 N LA CUESTA DR,LOS ANGELES,CA,90046,4,Select Portfolio Servicing,Select Portfolio Servicing,888-349-8964,Edward Zubia,edaward zubia,3540   wilshire BLVD  Los Angeles CA 90010,213-804-7437,-118.35498,34.12027,POINT (-118.35498 34.12027)
2741022024,01/07/2021 12:00:00 AM,Single Family,9957 N DELCO AVE,LOS ANGELES,CA,91311,12,Flagstar Bank,Eric Moore,877-338-3791,Safeguard,Code Compliance,27720   Jefferson AVE  Temecula CA 92590,877-338-3791,-118.57898,34.25163,POINT (-118.57898 34.25163)
2157009132,01/04/2021 12:00:00 AM,Single Family,5700 N ETIWANDA AVE,TARZANA,CA,91356,3,Cenlar FSB,Eric Moore,877-338-3791,Safeguard,Code Compliance,27720   Jefferson AVE  Temecula CA 92590,877-338-3791,-118.53068,34.17495,POINT (-118.53068 34.17495)
6014013004,06/04/2021 12:00:00 AM,Single Family,1038 W 66TH ST,LOS ANGELES,CA,90044,8,"Trinity Financial Services, LLC",Don Madden,949-313-6161,"Trinity Financial Services, LLC",Don Madden,2618   San Miguel DR 303 Newport Beach CA 92660,949-313-6161,-118.29316,33.97906,POINT (-118.29316 33.97906)
4114035026,01/08/2021 12:00:00 AM,Single Family,7360 W COASTAL VIEW DR,LOS ANGELES,CA,90045,11,Specialized Loan Servicing LLC C/O Computershare on behalf of beneficiary,Computershare Management,720-241-7375,First Team Real Estate,Eddy Leon,20234   State ROAD  Cerritos CA 90703,562-461-1200,-118.42458,33.96405,POINT (-118.42458 33.96405)
6088008031,01/08/2021 12:00:00 AM,Single Family,728 W 115TH ST,LOS ANGELES,CA,90044,8,Select Portfolio Servicing,Select Portfolio Servicing,888-349-8964,edward zubia,Edward Zubia,3540   willshire BLVD  los angeles CA 90010,213-804-7437,-118.28799,33.92964,POINT (-118.28799 33.92964)
6035028004,12/17/2021 12:00:00 AM,Single Family,2144 W 84TH PL,LOS ANGELES,CA,90047,8,Champion Mortgage,Tina Simmons,972-894-9993,Carlos Sims,Carlos Sims,11820   Cherrylee DR  El Monte CA 91732,800-639-2151,-118.31714,33.96169,POINT (-118.31714 33.96169)
5019001006,03/04/2021 12:00:00 AM,Multi-Family,853 W 40TH PL,LOS ANGELES,CA,90037,9,"Deutsche Bank National Trust Company, as Trustee",Select Portfolio Servicing,888-349-8964,Edward Zubia,edaward zubia,3540   wilshire BLVD  Los Angeles CA 90010,213-804-7437,-118.28909,34.01015,POINT (-118.28909 34.01015)
4370016029,01/04/2021 12:00:00 AM,Single Family,10535 W VESTONE WAY,LOS ANGELES,CA,90077,5,HMC Assets,HMC Assets,310-535-9293,MCS,Code Compliance,350   HIGHLAND DR  LEWISVILLE TX 75067,813-387-1100,-118.44961,34.1003,POINT (-118.44961 34.1003)
5683011003,07/27/2021 12:00:00 AM,Single Family,4653 W AVENUE 40,LOS ANGELES,CA,90065,14,Velocity Commercial Capital,Renzo Ripa,866-505-3863,"ZBS Law, LLP",Dawn Talavera,30   Corporate Park   Irvine CA 92606,714-848-7920,-118.23275,34.13518,POINT (-118.23275 34.13518)
2032029012,07/21/2021 12:00:00 AM,Single Family,6100 N WOODLAND VIEW DR,LOS ANGELES,CA,91367,3,"PEAK FORECLOSURE SERVICES, INC.",Kelli Espinoza,818-591-9237,NULL,NULL,,NULL,-118.66358,34.18163,POINT (-118.66358 34.18163)
5084016025,01/21/2021 12:00:00 AM,Multi-Family,1036 S CLOVERDALE AVE,LOS ANGELES,CA,90019,10,Cloverdale 1036 LLC.,Jeffry Scapa,323-957-1710,Cloverdale 1036 LLC,Jeffry Scapa,7083   Hollywood BLVD 633 Los Angeles CA 90028,323-957-1710,-118.34819,34.05626,POINT (-118.34819 34.05626)
5429028005,01/14/2021 12:00:00 AM,Single Family,3507 W CRESTMONT AVE,LOS ANGELES,CA,90026,13,Wells Fargo Bank N.A.,Jenna Douglas,877-617-5274,LPS,Jenna Douglas,1003  E Brier DR  San Bernardino CA 92408,281-404-7816,-118.27395,34.09253,POINT (-118.27395 34.09253)
2656015016,02/16/2021 12:00:00 AM,Single Family,15501 W VINCENNES ST,LOS ANGELES,CA,91343,7,Specialized Loan Servicing LLC C/O Computershare on behalf of beneficiary,Computershare Management,720-241-7375,First Team Real Estate,Eddy Leon,20234   State ROAD  Cerritos CA 90703,562-461-1200,-118.46978,34.24106,POINT (-118.46978 34.24106)
5115030020,01/06/2021 12:00:00 AM,Multi-Family,1139 E 43RD ST,LOS ANGELES,CA,90011,9,PHH Mortgage Corporation,Marquita Bullock,888-820-6474,The Herac Group,Torres Rose,11030   Arrow RE  RANCHO CUCAMONGA CA 91730,909-481-1100,-118.25554,34.00589,POINT (-118.25554 34.00589)
2627024016,01/14/2021 12:00:00 AM,Single Family,13207 W BRYSON ST,LOS ANGELES,CA,91331,6,Wells Fargo Bank N.A.,Jenna Douglas,877-617-5274,Lender Processing Services,Jenna Douglas,1003  E Brier DR  San Bernardino CA 92408,877-617-8274,-118.42026,34.2287,POINT (-118.42026 34.2287)
6072001013,01/04/2021 12:00:00 AM,Single Family,645 E 113TH ST,LOS ANGELES,CA,90059,15,Cenlar FSB,Eric Moore,877-338-3791,SAFEGAURD PROPERTIES,EDWARD ZUBIA,3540   WILSHIRE BLVD 1109 LOS ANGELES CA 90010,213-383-2097,-118.26356,33.93205,POINT (-118.26356 33.93205)
2701018011,01/14/2021 12:00:00 AM,Single Family,12008 N STONE GATE WAY,LOS ANGELES,CA,91326,12,Wells Fargo Bank N.A.,Jenna Douglas,877-617-5274,LPS,Jenna Douglas,1003  E Brier DR  San Bernardino CA 92408,281-404-7816,-118.56624,34.29108,POINT (-118.56624 34.29108)
2328031006,01/21/2021 12:00:00 AM,Multi-Family,13445 W VANOWEN ST,VAN NUYS,CA,91405,2,Allstar Financial Services Inc,Sumana Sur,818-346-7827,NULL,NULL,,NULL,-118.42617,34.19408,POINT (-118.42617 34.19408)
2023009010,12/02/2021 12:00:00 AM,Single Family,22108 W CANTLAY ST,LOS ANGELES,CA,91303,3,Celink,Cory Daggett,866-654-0020,J & J BOARD- UPS/FIVE BROTHERS,JAVIER ORTIZ,475  S Rall AVE  Bassett CA 91746,626-290-9017,-118.60842,34.20183,POINT (-118.60842 34.20183)
4007007024,04/08/2021 12:00:00 AM,Single Family,6027 S 6TH AVE,LOS ANGELES,CA,90043,8,SN Servicing Corporation,Ashlee McKenney,707-476-2622,First Allegiance,Caroline Grimm,9447   Firestone BLVD  Downey CA 90241,652-237-6102,-118.32365,33.98468,POINT (-118.32365 33.98468)
2728002029,01/04/2021 12:00:00 AM,Single Family,19125 W OLYMPIA ST,LOS ANGELES,CA,91326,12,Fay Servicing,Eric Moore,877-338-3791,Safeguard,Code Compliance,27720   Jefferson AVE  Temecula CA 92590,877-338-3791,-118.55012,34.26513,POINT (-118.55012 34.26513)
4248003015,06/10/2021 12:00:00 AM,Single Family,12210 W MALONE ST,LOS ANGELES,CA,90066,11,Shellpoint Mortgage Servicing,Eric Moore,877-338-3791,Safeguard,Code Compliance,27720   Jefferson AVE  Temecula CA 92590,877-338-3791,-118.44331,34.01984,POINT (-118.44331 34.01984)
2233013008,01/12/2021 12:00:00 AM,Single Family,6438 N GLORIA AVE,VAN NUYS,CA,91406,6,Select Portfolio Servicing,Select Portfolio Servicing,888-349-8964,Edward Zubia,edaward zubia,3540   wilshire BLVD  Los Angeles CA 90010,213-804-7437,-118.47913,34.18783,POINT (-118.47913 34.18783)
5473004027,10/27/2021 12:00:00 AM,Single Family,3022 N VALLE VISTA DR,LOS ANGELES,CA,90065,14,Select Portfolio Servicing,Select Portfolio Servicing,888-349-8964,Edward Zubia,Edward Zubia,3540   WILSHIRE BLVD 1109 LOS ANGELES CA 90010,213-804-7437,-118.22861,34.12202,POINT (-118.22861 34.12202)
6069017022,01/06/2021 12:00:00 AM,Single Family,1710 E 111TH PL,LOS ANGELES,CA,90059,15,"QUINTANILLA,JORGE ALBERTO C/O RUSHMORE LOAN MANAGEMENT SERVICES",Property Preservation,949-341-5601,Edward Zubia,Edward Zubia,3540   WILSHIRE BLVD 1109 LOS ANGELES CA 90010,213-804-7437,-118.24316,33.93383,POINT (-118.24316 33.93383)
6041012034,04/16/2021 12:00:00 AM,Multi-Family,247 E 89TH ST,LOS ANGELES,CA,90003,9,Freedom Mortgage,Byron Gladden,317-537-3714,MCS,Code Compliance,350   HIGHLAND DR  LEWISVILLE TX 75067,813-387-1100,-118.27014,33.95569,POINT (-118.27014 33.95569)
5510001001,03/01/2021 12:00:00 AM,Single Family,6215 W DREXEL AVE,LOS ANGELES,CA,90048,5,"Anchor Fund Holdings, LLC",Angela Carroll,310-395-0010,Anchor Loans LP,Anthony Martinez,1   Baxter WAY 220 Thousand Oaks CA 91362,310-395-0010,-118.36212,34.06841,POINT (-118.36212 34.06841)
5504028056,11/25/2021 12:00:00 AM,Single Family,4070 W 6TH ST,LOS ANGELES,CA,90005,10,Real Time Resolutions,DAVID ROSAS,888-895-0221,EDWARD ZUBIA,EDWARD ZUBIA,3540   wilshire BLVD  Los Angeles CA 90010,818-406-3611,-118.31265,34.06271,POINT (-118.31265 34.06271)
6037027028,12/13/2021 12:00:00 AM,Single Family,8906 S HOBART BLVD,LOS ANGELES,CA,90047,8,SUNWEST MORTGAGE,CELESTINE LEWIS,800-453-7884,J & J BOARD- UPS/FIVE BROTHERS,JAVIER ORTIZ,475  S Rall AVE  Bassett CA 91746,626-290-9017,-118.30774,33.95606,POINT (-118.30774 33.95606)
5064006016,01/08/2021 12:00:00 AM,Single Family,1811 S BURNSIDE AVE,LOS ANGELES,CA,90019,10,JP Morgan Chase NA,Amy Lott,888-310-1506,Pinelands Preservation,Aaron Noble,1906   Irvine AVE  Newport Beach CA 92660,949-294-8778,-118.35731,34.04214,POINT (-118.35731 34.04214)
5457023010,01/05/2021 12:00:00 AM,Single Family,2809 W ESTARA AVE,LOS ANGELES,CA,90065,1,Fay Servicing,Eric Moore,877-338-3791,Safeguard,Code Compliance,27720   Jefferson AVE  Temecula CA 92590,877-338-3791,-118.23746,34.11453,POINT (-118.23746 34.11453)
5082026003,01/05/2021 12:00:00 AM,Single Family,1107 S CRENSHAW BLVD,LOS ANGELES,CA,90019,10,Shellpoint Mortgage Servicing,Eric Moore,877-338-3791,Safeguard,Code Compliance,27720   Jefferson AVE  Temecula CA 92590,877-338-3791,-118.32419,34.05281,POINT (-118.32419 34.05281)
2246021012,01/08/2021 12:00:00 AM,Single Family,5717 N CANTALOUPE AVE,VAN NUYS,CA,91401,2,"Deutsche Bank National Trust Company, as Trustee",Douglas Randall,303-470-3633,First Team Real Estate,Eddy Leon,20234   State ROAD  Cerritos CA 90703,562-461-1200,-118.43466,34.17438,POINT (-118.43466 34.17438)
7413014022,01/09/2021 12:00:00 AM,Single Family,1078 W 252ND ST,LOS ANGELES,CA,90710,15,PHH Mortgage/Ocwen Financial Corporation,Marquita Bullock,561-682-7547,Guardian Asset Management,Colleen McEntee,2300  E Lincoln HWY  Langhorne PA 19047,267-825-0283,-118.29547,33.79564,POINT (-118.29547 33.79564)
5561024007,01/21/2021 12:00:00 AM,Single Family,1410 N TANAGER WAY,HOLLYWOOD,CA,90069,4,"HANKEY CAPITAL, LLC",Eugene Leydiker,323-692-4026,NULL,NULL,,NULL,-118.38525,34.09708,POINT (-118.38525 34.09708)
5160004014,01/06/2021 12:00:00 AM,Single Family,347 N PATTON ST,LOS ANGELES,CA,90026,1,Metropolitan Mortgage,Alan Fattal,818-778-6400,Metropolitan Mortgage,Alan Fattal,7136   Haskell AVE  Van Nuys CA 91406,818-778-6400,-118.25857,34.06645,POINT (-118.25857 34.06645)
2258015004,01/04/2021 12:00:00 AM,Single Family,5019 1/2 N GENESTA AVE,LOS ANGELES,CA,91316,4,Shellpoint Mortgage Servicing,Eric Moore,877-338-3791,MCS,Code Compliance,350   HIGHLAND DR  LEWISVILLE TX 75067,813-387-1100,-118.5034,34.16234,POINT (-118.5034 34.16234)
2514015029,10/27/2021 12:00:00 AM,Single Family,11904 N CHADRON AVE,LOS ANGELES,CA,91340,7,Celink,Cory Daggett,866-654-0020,J & J BOARD- UPS/FIVE BROTHERS,JAVIER ORTIZ,475  S Rall AVE  Bassett CA 91746,626-290-9017,-118.41728,34.28691,POINT (-118.41728 34.28691)
5069016015,11/02/2021 12:00:00 AM,Single Family,1664 S STANLEY AVE,LOS ANGELES,CA,90019,10,Celink,Cory Daggett,866-654-0020,J & J BOARD- UPS/FIVE BROTHERS,JAVIER ORTIZ,475  S Rall AVE  Bassett CA 91746,626-290-9017,-118.36309,34.04488,POINT (-118.36309 34.04488)
6132025053,02/02/2021 12:00:00 AM,Single Family,12018 S BROADWAY,LOS ANGELES,CA,90061,15,Mr. Cooper,Paula Acosta,800-468-1743,"Solid Foundation Properties, LLC.",Compliance Team,2690   Cobb PKWY A5379 SMYRNA GA 30080,333-205-7447,-118.27799,33.92309,POINT (-118.27799 33.92309)
5218016028,04/07/2021 12:00:00 AM,Multi-Family,3406 N PUEBLO AVE 1-3,LOS ANGELES,CA,90032,14,Wilshire Financial Network,Adrian Zubia,310-490-1369,WILSHIRE FINANCIAL LOAN SERVICE,ANDY ZUBIA,468  N CAMDEN DR 200 BEVERLY HILLS CA 90210,310-890-6058,-118.17412,34.08511,POINT (-118.17412 34.08511)
6051002016,01/05/2021 12:00:00 AM,Single Family,707 E 104TH ST,LOS ANGELES,CA,90002,8,"QUIJADA,ERNESTO C/O RUSHMORE LOAN MANAGEMENT SERVICES",Property Preservation,949-341-5601,SAFEGAURD PROPERTIES,EDWARD ZUBIA,3540   WILSHIRE BLVD 1109 LOS ANGELES CA 90010,213-383-2097,-118.26272,33.94201,POINT (-118.26272 33.94201)
2338006014,12/02/2021 12:00:00 AM,Multi-Family,6142 N HAZELHURST PL,NORTH HOLLYWOOD,CA,91606,2,Ira J Boren,Brian Boren,310-395-4620,Investment Management Company,Maria Pineda,1507   7th ST 344 Santa Monica CA 90401,310-395-4620,-118.38727,34.18241,POINT (-118.38727 34.18241)
6004009026,01/04/2021 12:00:00 AM,Multi-Family,839 W 61ST ST,LOS ANGELES,CA,90044,9,PHH,Eric Moore,877-338-3791,Safeguard,Code Compliance,27720   Jefferson AVE  Temecula CA 92590,877-338-3791,-118.28843,33.98473,POINT (-118.28843 33.98473)
2028012015,01/31/2021 12:00:00 AM,Single Family,23601 W VANOWEN ST,LOS ANGELES,CA,91307,12,"Ajax Mortgage Loan Trust 2019-A, Mortgage-Backed Securities, Series 2019-A, by U.S. Bank National As",Marcus Brown,503-444-4186,Edward Zubia,Edward Zubia,3540   wilshire BLVD  Los Angeles CA 90010,213-804-7437,-118.64051,34.19337,POINT (-118.64051 34.19337)
6033018036,02/02/2021 12:00:00 AM,Single Family,1057 W 81ST PL,LOS ANGELES,CA,90044,8,Freedom Mortgage,Shannon Powell,317-537-3714,Greenfield Property LLC,MCS LLC,4033   Stable Drive   Palmdale CA 93552,866-563-1100,-118.2939,33.96519,POINT (-118.2939 33.96519)
5209024003,08/03/2021 12:00:00 AM,Vacant Residential,2608 N FOREST PARK DR,LOS ANGELES,CA,90032,14,"SYNOVO INVESTMENTS, LLC",Kashif Rana,508-667-0007,PEAK FORECLOSURE SERVICES,KELLI ESPINOZA,5900   Canoga AVE 220 Woodland Hills CA 91367,818-591-9237,-118.19792,34.07758,POINT (-118.19792 34.07758)
5027010006,01/09/2021 12:00:00 AM,Single Family,4747 W DON ZAREMBO DR,LOS ANGELES,CA,90008,8,PHH Mortgage/Ocwen Financial Corporation,Marquita Bullock,561-682-7547,Guardian Asset Management,Colleen McEntee,2300  E Lincoln HWY  Langhorne PA 19047,267-825-0283,-118.35735,34.00223,POINT (-118.35735 34.00223)
5555007013,02/03/2021 12:00:00 AM,Single Family,1374 N MILLER PL,HOLLYWOOD,CA,90069,4,Platinum Loan Servicing,Karen Larson,818-222-5222,NULL,NULL,,NULL,-118.37661,34.09534,POINT (-118.37661 34.09534)
5016021024,01/06/2021 12:00:00 AM,Single Family,1422 W 48TH ST,LOS ANGELES,CA,90062,8,PHH Mortgage Corporation,Marquita Bullock,888-820-6474,Pacific Star Contracting Services Inc,April Soto,15400   Belgrade Street 86 ST  WESTMINSTER CA 92683,631-806-2657,-118.30093,33.99996,POINT (-118.30093 33.99996)
5479019064,04/05/2021 12:00:00 AM,Single Family,1986 N PHILLIPS WAY,LOS ANGELES,CA,90042,14,Celink,Daniel Stack,866-727-4303,Carlos Sims,Carlos Sims,11820   Cherrylee DR  El Monte CA 91732,800-639-2151,-118.2008,34.12899,POINT (-118.2008 34.12899)
5175004013,07/14/2021 12:00:00 AM,Multi-Family,2315 E CITY VIEW AVE,LOS ANGELES,CA,90033,14,"Standard Mortgage Financial Services, Inc.",Iliana Martinez,951-686-9639,LRES Corp.,Kathy Golden,765   The City Drive South   Orange CA 92868,714-520-5737,-118.206,34.05108,POINT (-118.206 34.05108)
2023021019,01/05/2021 12:00:00 AM,Single Family,22314 W COHASSET ST,LOS ANGELES,CA,91303,3,Shellpoint Mortgage Servicing,Eric Moore,877-338-3791,Safeguard,Code Compliance,27720   Jefferson AVE  Temecula CA 92590,877-338-3791,-118.61295,34.2065,POINT (-118.61295 34.2065)
5023001010,01/25/2021 12:00:00 AM,Multi-Family,4112 S 9TH AVE,LOS ANGELES,CA,90008,10,Toorak Capital Partners LLC,SNS Trust Network,818-991-4600,Edgestone Real Estate Inc,Sebastian Stofenmacher,654  N Virgil AVE s201 Los ANgeles CA 90004,818-464-5113,-118.32692,34.00956,POINT (-118.32692 34.00956)
6031008018,01/12/2021 12:00:00 AM,Multi-Family,203 W 75TH ST,LOS ANGELES,CA,90003,9,Select Portfolio Servicing,Select Portfolio Servicing,888-349-8964,Edward Zubia,edaward zubia,3540   wilshire BLVD  Los Angeles CA 90010,213-804-7437,-118.27622,33.97189,POINT (-118.27622 33.97189)
2601071003,11/17/2021 12:00:00 AM,Single Family,17827 W SIDWELL ST,LOS ANGELES,CA,91344,12,"Mr. Cooper/Nationstar Mortgage, LLC.",Mr. Cooper,888-456-0714,"Solid Foundation Properties, LLC.",Compliance Team,2690   Cobb PKWY A5379 SMYRNA GA 30080,333-205-7447,-118.52282,34.30023,POINT (-118.52282 34.30023)
2210016020,01/04/2021 12:00:00 AM,Single Family,8054 N NATICK AVE,LOS ANGELES,CA,91402,6,Fay Servicing,Eric Moore,877-338-3791,Safeguard,Code Compliance,27720   Jefferson AVE  Temecula CA 92590,877-338-3791,-118.45429,34.21769,POINT (-118.45429 34.21769)
2309024007,01/09/2021 12:00:00 AM,Single Family,7837 N VANTAGE AVE,LOS ANGELES,CA,91605,2,PHH Mortgage/Ocwen Financial Corporation,Marquita Bullock,561-682-7547,Guardian Asset Management,Colleen McEntee,2300  E Lincoln HWY  Langhorne PA 19047,267-825-0283,-118.39783,34.21318,POINT (-118.39783 34.21318)
5485014019,01/04/2021 12:00:00 AM,Vacant Residential,1419 N AVENUE 57,LOS ANGELES,CA,90042,14,Crawford Real Estate Services,susan Zowarka,909-882-3393,Shoshone Service Corp,Lila Zapata,1980   Orange Tree LANE 107 Redlands CA 92374,909-891-8203,-118.19492,34.12536,POINT (-118.19492 34.12536)
2036023002,12/17/2021 12:00:00 AM,Single Family,23511 W VICTORY BLVD,LOS ANGELES,CA,91307,12,COMMUNITY LOAN SERVICING,Frances Guerra,954-590-7676,Greenfield Property LLC,Code Compliance,4033   Stable DR  Palmdale CA 93552,866-563-1100,-118.63957,34.18672,POINT (-118.63957 34.18672)
4262017043,01/07/2021 12:00:00 AM,Single Family,11700 W IOWA AVE 1-12,LOS ANGELES,CA,90025,11,Cenlar FSB,Eric Moore,877-338-3791,Safeguard,Code Compliance,27720   Jefferson AVE  Temecula CA 92590,877-338-3791,-118.45435,34.04107,POINT (-118.45435 34.04107)
5103021029,01/28/2021 12:00:00 AM,Single Family,939 E 55TH ST,LOS ANGELES,CA,90011,9,Mr. Cooper,Paula Acosta,800-468-1743,"Solid Foundation Properties, LLC.",Compliance Team,2690   Cobb PKWY A5379 SMYRNA GA 30080,333-205-7447,-118.25907,33.99261,POINT (-118.25907 33.99261)
2631026015,01/13/2021 12:00:00 AM,Single Family,11826 W SNELLING ST,LOS ANGELES,CA,91352,6,BSI Financial Services,Registration Department,814-827-4661,Property Preservation Servicing LLC,Trevethan Aaron,27071   cabot RD  LAGUNA HILLS CA 92653,949-612-0342,-118.3911,34.23248,POINT (-118.3911 34.23248)
5035018020,01/14/2021 12:00:00 AM,Single Family,1743 W 39TH PL,LOS ANGELES,CA,90062,8,Select Portfolio Servicing,Select Portfolio Servicing,888-349-8964,Edward Zubia,edaward zubia,3540   wilshire BLVD  Los Angeles CA 90010,213-804-7437,-118.31251,34.01383,POINT (-118.31251 34.01383)
2013031021,01/04/2021 12:00:00 AM,Single Family,7722 N FAUST AVE,LOS ANGELES,CA,93063,12,Cenlar FSB,Eric Moore,877-338-3791,Bron Inc,Amy Lee,24210   Dandelion CT  Lake Elsinore CA 92532,877-338-3791,-118.62026,34.21075,POINT (-118.62026 34.21075)
5556008028,01/08/2021 12:00:00 AM,Single Family,8280 W GRAND VIEW DR,HOLLYWOOD,CA,90046,4,RUSHMORE LOAN MANAGEMENT SERVICES,PROPERTY PRESERVATION,949-341-5601,Edward Zubia,Edward Zubia,3540   WILSHIRE BLVD 1109 LOS ANGELES CA 90010,213-804-7437,-118.37124,34.10444,POINT (-118.37124 34.10444)
2524020001,03/03/2021 12:00:00 AM,Single Family,13332 W DEL SUR ST,LOS ANGELES,CA,91340,7,PHH Mortgage/Ocwen Financial Corporation,Marquita Bullock,561-682-7547,Guardian Asset Management,Colleen McEntee,2300  E Lincoln HWY  Langhorne PA 19047,267-825-0283,-118.42372,34.28191,POINT (-118.42372 34.28191)
6001011016,05/18/2021 12:00:00 AM,Single Family,6023 S WILTON PL,LOS ANGELES,CA,90047,8,Select Portfolio Servicing,Select Portfolio Servicing,888-349-8964,edward zubia,Edward Zubia,3540   willshire BLVD  los angeles CA 90010,213-804-7437,-118.31495,33.98463,POINT (-118.31495 33.98463)
5111023020,10/21/2021 12:00:00 AM,Multi-Family,145 1/2 W 41ST ST,LOS ANGELES,CA,90037,9,Toorak Repo Seller I Trust,Stephen Tyde,908-897-1115,Pinelands Preservation,Aaron Noble,1906   Irvine AVE  Newport Beach CA 92660,949-294-8778,-118.27505,34.00928,POINT (-118.27505 34.00928)
6057007056,10/07/2021 12:00:00 AM,Single Family,2100 W 96TH ST,LOS ANGELES,CA,90047,8,"PS FUNDING, INC",KIMBERLY STAPLES,213-267-0649,"PS Funding, Inc",Casey Corcoran,2121   Park PL  El Segundo CA 90245,323-687-6238,-118.31564,33.94898,POINT (-118.31564 33.94898)
6083024004,03/24/2021 12:00:00 AM,Single Family,148 E 118TH PL,LOS ANGELES,CA,90061,15,"SHADGOU,ROGER IRAJ C/O RUSHMORE LOAN MANAGEMENT SERVICES",PROPERTY PRESERVATION,949-341-5601,MCS,Code Compliance,350   Highland DR 100 Lewisville TX 75067,813-387-1100,-118.27011,33.92542,POINT (-118.27011 33.92542)
2157004040,03/09/2021 12:00:00 AM,Single Family,18404 W HATTERAS ST,LOS ANGELES,CA,91356,3,Mr. Cooper LLC,Paula Acosta,800-468-1743,Xome Field Services C/O New Beginning Properties Inc.,Lourdes Chavez,999  W Marshall BLVD  San Bernadino CA 92405,800-468-1743,-118.53359,34.17732,POINT (-118.53359 34.17732)
5585028028,01/07/2021 12:00:00 AM,Single Family,6180 W TEMPLE HILL DR,LOS ANGELES,CA,90068,4,JP Morgan Chase NA,Amy Lott,888-310-1506,Pinelands Preservation,Aaron Noble,1906   Irvine AVE  Newport Beach CA 92660,949-294-8778,-118.32435,34.11176,POINT (-118.32435 34.11176)
5520015016,01/12/2021 12:00:00 AM,Multi-Family,401 N KENMORE AVE,LOS ANGELES,CA,90004,13,JP Morgan Chase NA,Amy Lott,888-310-1506,Pinelands Preservation,Aaron Noble,1906   Irvine AVE  Newport Beach CA 92660,949-294-8778,-118.29717,34.07788,POINT (-118.29717 34.07788)
5042004005,12/08/2021 12:00:00 AM,Single Family,3623 S ARLINGTON AVE,LOS ANGELES,CA,90018,10,SUNWEST MORTGAGE,CELESTINE LEWIS,800-453-7884,J & J BOARD- UPS/FIVE BROTHERS,JAVIER ORTIZ,475  S Rall AVE  Bassett CA 91746,626-290-9017,-118.31777,34.02209,POINT (-118.31777 34.02209)
2629030018,01/08/2021 12:00:00 AM,Single Family,9139 N MOREHART AVE,LOS ANGELES,CA,91331,6,Select Portfolio Servicing,Select Portfolio Servicing,888-349-8964,Edward Zubia,edaward zubia,3540   wilshire BLVD  Los Angeles CA 90010,213-804-7437,-118.40931,34.23568,POINT (-118.40931 34.23568)
2660011029,01/06/2021 12:00:00 AM,Single Family,9956 N MEMORY PARK AVE,LOS ANGELES,CA,91345,7,PHH Mortgage Corporation,Marquita Bullock,888-820-6474,The Herac Group,Torres Rose,11030   Arrow RE  RANCHO CUCAMONGA CA 91730,909-481-1100,-118.46401,34.25183,POINT (-118.46401 34.25183)
2289024021,01/28/2021 12:00:00 AM,Single Family,16814 W OAK VIEW DR,LOS ANGELES,CA,91436,4,Secured Income Fund-II LLC,James Gomes,408-370-4030,REA Properties,Jeff Russell,14040   Panay WAY  Marina del Rey CA 90292,424-370-4030,-118.49974,34.15532,POINT (-118.49974 34.15532)
2415020015,01/05/2021 12:00:00 AM,Single Family,10719 W COLLINS ST,LOS ANGELES,CA,91601,2,Provident Funding,Derrek Chiddix,800-696-8199,National Field Representatives,Carlos Sims,11820   Cherrylee DR  El Monte CA 91732,626-485-8889,-118.36435,34.17408,POINT (-118.36435 34.17408)
6023022024,01/14/2021 12:00:00 AM,Multi-Family,833 E 77TH ST,LOS ANGELES,CA,90001,9,BANK OF AMERICA,VPR DEPARTMENT,213-345-6264,First Team Real Estate,Eddy Leon,20234   State ROAD  Cerritos CA 90703,562-461-1200,-118.25963,33.96948,POINT (-118.25963 33.96948)
2115015022,02/16/2021 12:00:00 AM,Single Family,7501 N JUMILLA AVE,LOS ANGELES,CA,91306,3,PHH Mortgage Corporation,Brandon Thomas,888-820-6474,Pacific Star Contracting Services Inc,April Soto,15400   Belgrade Street 86 ST  WESTMINSTER CA 92683,631-806-2657,-118.56347,34.20619,POINT (-118.56347 34.20619)
6034012016,01/14/2021 12:00:00 AM,Multi-Family,8123 S NORMANDIE AVE,LOS ANGELES,CA,90047,8,COMMUNITY LOAN SERVICING,Frances Guerra,954-590-7676,Greenfield Property LLC,MCS LLC,4033   Stable Drive   Palmdale CA 93552,866-563-1100,-118.30041,33.96486,POINT (-118.30041 33.96486)
5055004022,09/23/2021 12:00:00 AM,Multi-Family,1320 W 25TH ST,LOS ANGELES,CA,90007,8,PHH Mortgage Corporation,Marquita Bullock,888-820-6474,The Herac Group,Torres Rose,11030   Arrow RE  RANCHO CUCAMONGA CA 91730,909-481-1100,-118.28959,34.03343,POINT (-118.28959 34.03343)
6018031010,08/13/2021 12:00:00 AM,Single Family,7840 S HOBART BLVD,LOS ANGELES,CA,90047,8,Great Western Trust,Keri Fricke,866-290-8795,Edward Zubia,Edward Zubia,3540   WILSHIRE BLVD 1109 LOS ANGELES CA 90010,213-804-7437,-118.30774,33.96797,POINT (-118.30774 33.96797)
5026013002,01/06/2021 12:00:00 AM,Single Family,4212 W DON LUIS DR,LOS ANGELES,CA,90008,8,PHH Mortgage Corporation,Marquita Bullock,888-820-6474,Property Preservation Servicing LLC,Aaron Trevethan,27071   Cabot RD 119 LAGUNA HILLS CA 92653,949-612-0342,-118.34467,34.00548,POINT (-118.34467 34.00548)
2532010072,01/19/2021 12:00:00 AM,Single Family,12345 W STONEGATE RD,LOS ANGELES,CA,91331,7,Select Portfolio Servicing,Select Portfolio Servicing,888-349-8964,Edward Zubia,edaward zubia,3540   wilshire BLVD  Los Angeles CA 90010,213-804-7437,-118.40066,34.28041,POINT (-118.40066 34.28041)
5053003008,01/27/2021 12:00:00 AM,Multi-Family,2081 W 29TH ST,LOS ANGELES,CA,90018,10,"PS FUNDING, INC",KIMBERLY STAPLES,213-267-0649,"PS Funding, Inc",Casey Corcoran,2121   Park PL  El Segundo CA 90245,323-687-6238,-118.31134,34.02923,POINT (-118.31134 34.02923)
2557002033,02/22/2021 12:00:00 AM,Single Family,7707 W JAYSEEL ST,LOS ANGELES,CA,91042,7,PHH Mortgage/Ocwen Financial Corporation,Marquita Bullock,561-682-7547,Guardian Asset Management,Colleen McEntee,2300  E Lincoln HWY  Langhorne PA 19047,267-825-0283,-118.30048,34.26562,POINT (-118.30048 34.26562)
2701007123,01/26/2021 12:00:00 AM,Single Family,19407 W TURTLE RIDGE LANE,LOS ANGELES,CA,91326,12,Bank of America C/O Reverse Mortgage Solutions,Shelly Martinez,281-404-7962,South Pacific Field Services LLC,Tamie Mason,31568   Railroad Canyon ROAD 100 Canyon Lake CA 92587,951-696-8100,-118.55701,34.29605,POINT (-118.55701 34.29605)
5206006009,05/03/2021 12:00:00 AM,Multi-Family,2670 N WORKMAN ST,LOS ANGELES,CA,90031,1,Fay Servicing,Eric Moore,877-338-3791,Safeguard,Code Compliance,27720   Jefferson AVE  Temecula CA 92590,877-338-3791,-118.21433,34.07854,POINT (-118.21433 34.07854)
2763033034,01/06/2021 12:00:00 AM,Single Family,9647 N AMIGO AVE,LOS ANGELES,CA,91324,12,Security National Servicing Corp,Eric Moore,877-338-3791,Expert Real Estate & Investment,Caroline Gim,9447   Firestone BLVD  Downey CA 90241,562-861-4311,-118.538,34.24606,POINT (-118.538 34.24606)
2626006036,11/17/2021 12:00:00 AM,Multi-Family,12971 W CORRENTI ST,PACOIMA,CA,91331,7,Quicken Loans,ERIC MOORE,877-338-3791,ServiceLink,Client Services,10632   Westmoor DR 100 Westminster CO 80021,877-847-8612,-118.41563,34.24727,POINT (-118.41563 34.24727)
2644026200,01/11/2021 12:00:00 AM,Single Family,14415 W PLUMMER ST,LOS ANGELES,CA,91402,6,U S Bank NA as TR of Truman 2016 Sc6 Title Trust,Susan Dicicco,914-730-7026,RE/MAX Coast and Valley,Erik Sellfors,5775  E Los Angeles AVE  Simi Valley CA 93063,805-522-1113,-118.44685,34.24288,POINT (-118.44685 34.24288)
2673020086,09/03/2021 12:00:00 AM,Single Family,8352 N WOODLEY PL,LOS ANGELES,CA,91343,12,Select Portfolio Servicing,Select Portfolio Servicing,888-349-8964,Edward Zubia,Edward Zubia,3540   WILSHIRE BLVD 1109 LOS ANGELES CA 90010,213-804-7437,-118.48508,34.22269,POINT (-118.48508 34.22269)
2124022024,01/14/2021 12:00:00 AM,Single Family,6215 N LINDLEY AVE,LOS ANGELES,CA,91335,3,Select Portfolio Servicing,Select Portfolio Servicing,888-349-8964,Edward Zubia,edaward zubia,3540   wilshire BLVD  Los Angeles CA 90010,213-804-7437,-118.52743,34.1822,POINT (-118.52743 34.1822)
2272029007,04/05/2021 12:00:00 AM,Single Family,13745 1/2 N SEVY LANE,LOS ANGELES,CA,91423,4,Select Portfolio Servicing,Select Portfolio Servicing,888-349-8964,edward zubia,Edward Zubia,3540   willshire BLVD  los angeles CA 90010,213-804-7437,-118.4315,34.1345,POINT (-118.4315 34.1345)
6011005022,01/05/2021 12:00:00 AM,Multi-Family,226 E 69TH ST,LOS ANGELES,CA,90003,9,Shellpoint Mortgage Servicing,Eric Moore,877-338-3791,Safeguard,Code Compliance,27720   Jefferson AVE  Temecula CA 92590,877-338-3791,-118.27081,33.97686,POINT (-118.27081 33.97686)
5047012018,01/15/2021 12:00:00 AM,Single Family,3539 S COCHRAN AVE,LOS ANGELES,CA,90016,10,Select Portfolio Servicing,Select Portfolio Servicing,888-349-8964,Edward Zubia,edaward zubia,3540   wilshire BLVD  Los Angeles CA 90010,213-804-7437,-118.36183,34.0224,POINT (-118.36183 34.0224)
5033006040,01/08/2021 12:00:00 AM,Single Family,3965 S NORTON AVE,LOS ANGELES,CA,90008,10,Statebridge,Bryce Fendall,720-697-6421,"New Beginning Properties, Inc.",Jose Chavez,445  W 34th ST  San Bernardino CA 92405,877-339-8202,-118.33195,34.01293,POINT (-118.33195 34.01293)
5431036030,01/09/2021 12:00:00 AM,Single Family,1737 N WEST SILVER LAKE DR,LOS ANGELES,CA,90026,13,PHH Mortgage/Ocwen Financial Corporation,Marquita Bullock,561-682-7547,Guardian Asset Management,Colleen McEntee,2300  E Lincoln HWY  Langhorne PA 19047,267-825-0283,-118.26851,34.09032,POINT (-118.26851 34.09032)
5131023022,01/05/2021 12:00:00 AM,Multi-Family,719 1/2 E 25TH ST,LOS ANGELES,CA,90011,9,Fay Servicing,Eric Moore,877-338-3791,Safeguard,Code Compliance,27720   Jefferson AVE  Temecula CA 92590,877-338-3791,-118.26008,34.02228,POINT (-118.26008 34.02228)
6014002001,09/27/2021 12:00:00 AM,Single Family,1256 W 64TH ST,LOS ANGELES,CA,90044,8,Reverse Mortgage Solutions,Monique White,866-503-5559,Carlos Sims,Carlos Sims,11820   Cherrylee DR  El Monte CA 91732,800-639-2151,-118.29784,33.98131,POINT (-118.29784 33.98131)
2782004007,02/04/2021 12:00:00 AM,Single Family,8349 N JUMILLA AVE,LOS ANGELES,CA,91306,3,Real Time Resolutions,DAVID ROSAS,888-895-0221,Edward Zubia,Edward Zubia,3540   wilshire BLVD  Los Angeles CA 90010,213-383-2097,-118.56352,34.22162,POINT (-118.56352 34.22162)
2278031006,12/07/2021 12:00:00 AM,Single Family,14811 W JADESTONE DR,LOS ANGELES,CA,91403,4,Royal Development Inc,Ross Miller,949-748-6285,Royal Development,Elena Rybina,200   Spectrum Center DR 1450 Irvine CA 92618,949-748-6285,-118.45735,34.13414,POINT (-118.45735 34.13414)
5005001015,01/13/2021 12:00:00 AM,Multi-Family,5740 S 3RD AVE,LOS ANGELES,CA,90043,8,LoanCare LLC,Eric MOORE,877-338-3791,Safeguard,Code Compliance,27720   Jefferson AVE  Temecula CA 92590,877-338-3791,-118.32023,33.98977,POINT (-118.32023 33.98977)
6061003026,02/19/2021 12:00:00 AM,Single Family,819 W 105TH ST,LOS ANGELES,CA,90044,8,Mark Schulman,Mark Schulman,415-874-5683,Precise Real Estate Investments,Bob Kasumyan,150  S Glenoaks BLVD 9319 Burbank CA 91502,844-727-8515,-118.29017,33.94082,POINT (-118.29017 33.94082)
7465019009,12/07/2021 12:00:00 AM,Single Family,2849 S KERCKHOFF AVE,SAN PEDRO,CA,90731,15,"EL MOLINO PROPERTY MANAGEMENT,LLC",norman merino,626-676-7355,el Molino Property management,norman merino,2452   el molino AVE  altadena CA 91001,626-676-7355,-118.2899,33.71787,POINT (-118.2899 33.71787)
2163007008,01/08/2021 12:00:00 AM,Single Family,5117 N TAMPA AVE,LOS ANGELES,CA,91356,3,SELECT PORTFOLIO SERVICING INC,Customer Department,801-293-3936,Edward Zubia,edaward zubia,3540   wilshire BLVD  Los Angeles CA 90010,213-804-7437,-118.55418,34.16416,POINT (-118.55418 34.16416)
5138027166,01/04/2021 12:00:00 AM,Multi-Family,900 W OLYMPIC BLVD,LOS ANGELES,CA,90015,9,Good News Mortgage Funding Inc.,Jae Kim,714-745-4880,LPS,Jenna Douglas,1003  E Brier DR  San Bernardino CA 92408,281-404-7816,-118.26611,34.04526,POINT (-118.26611 34.04526)
4294006056,01/12/2021 12:00:00 AM,Single Family,5106 S PACIFIC AVE,LOS ANGELES,CA,90292,11,JP Morgan Chase NA,Amy Lott,888-310-1506,Pinelands Preservation,Aaron Noble,1906   Irvine AVE  Newport Beach CA 92660,949-294-8778,-118.45695,33.96853,POINT (-118.45695 33.96853)
4371019037,04/19/2021 12:00:00 AM,Vacant Residential,993 N BEVERLY GLEN BLVD,LOS ANGELES,CA,90077,5,PHH Mortgage Services,Mark Beychok,310-402-6275,NULL,NULL,,NULL,-118.43996,34.09342,POINT (-118.43996 34.09342)
2870023036,10/07/2021 12:00:00 AM,Single Family,11865 N EDDLESTON DR,LOS ANGELES,CA,91326,12,Celink,Cory Daggett,866-654-0020,J & J BOARD- UPS/FIVE BROTHERS,JAVIER ORTIZ,475  S Rall AVE  Bassett CA 91746,626-290-9017,-118.5352,34.28906,POINT (-118.5352 34.28906)
2504007240,09/10/2021 12:00:00 AM,Single Family,14345 W FOOTHILL BLVD,SYLMAR,CA,91342,7,CLS - COMMUNITY LOAN SERVICING,Eric Moore,877-338-3791,ServiceLink Field Services,Jennifer Spies,10385   Westmoor DR  Westminster CO 80021,303-653-8258,-118.44625,34.32005,POINT (-118.44625 34.32005)
2360001030,01/06/2021 12:00:00 AM,Single Family,13546 W SARAH ST,LOS ANGELES,CA,91423,4,Fay Servicing,Ed Fay,800-495-7166,Steve Daggett,Steve Daggett,8011   Glencrest DR  Sun Valley CA 91352,818-577-6004,-118.42842,34.15386,POINT (-118.42842 34.15386)
2137019036,07/30/2021 12:00:00 AM,Single Family,20760 W VOSE ST,LOS ANGELES,CA,91306,3,Security National Servicing Corp,Eric Moore,877-338-3791,Safeguard,Code Compliance,27720   Jefferson AVE  Temecula CA 92590,877-338-3791,-118.58609,34.1982,POINT (-118.58609 34.1982)
5305005015,01/11/2021 12:00:00 AM,Single Family,3523 N MONTEREY ROAD,LOS ANGELES,CA,90032,14,Specialized Loan Servicing LLC C/O Computershare on behalf of beneficiary,Computershare Management,720-241-7375,First Team Real Estate,Eddy Leon,20234   State ROAD  Cerritos CA 90703,562-461-1200,-118.18771,34.0869,POINT (-118.18771 34.0869)
6038002018,12/14/2021 12:00:00 AM,Single Family,446 W 87TH PL,LOS ANGELES,CA,90003,8,Reverse Mortgage Solutions,Shelly Martinez,281-404-7962,Guardian Asset Management,Gina Butler,2021   Hartel AVE  Levittown PA 19057,888-872-9094,-118.282,33.95788,POINT (-118.282 33.95788)
2683015006,01/06/2021 12:00:00 AM,Single Family,16655 W JERSEY ST,LOS ANGELES,CA,91344,12,Select Portfolio Servicing,Select Portfolio Servicing,888-349-8964,edward zubia,Edward Zubia,3540   willshire BLVD  los angeles CA 90010,213-804-7437,-118.4954,34.26783,POINT (-118.4954 34.26783)
2747011043,01/04/2021 12:00:00 AM,Single Family,10223 N ETON AVE,LOS ANGELES,CA,91311,12,Shellpoint Mortgage Servicing,Eric Moore,877-338-3791,Safeguard,Code Compliance,27720   Jefferson AVE  Temecula CA 92590,877-338-3791,-118.59525,34.25616,POINT (-118.59525 34.25616)
2512020059,10/07/2021 12:00:00 AM,Single Family,13221 W BOMBAY ST,LOS ANGELES,CA,91342,7,US Bank as Trustee of the LSF9 Master Participation Trust,Ryan Curran,800-516-1553,MCS,Code Compliance,350   HIGHLAND DR  LEWISVILLE TX 75067,813-387-1100,-118.4208,34.31386,POINT (-118.4208 34.31386)
6003016019,01/21/2021 12:00:00 AM,Multi-Family,1217 W 60TH PL,LOS ANGELES,CA,90044,9,JCAP Financial Group,Donna Cornejo,714-278-4202,LRES Corp.,Kathy Golden,765   The City Drive South   Orange CA 92868,714-520-5737,-118.29647,33.98513,POINT (-118.29647 33.98513)
2582013033,03/19/2021 12:00:00 AM,Single Family,13542 W POLK ST,LOS ANGELES,CA,91342,7,SUPREME LENDING,Kimbra Currie,972-499-7025,SAFEGUARD,Edward Zubia,3540   WILSHIRE BLVD 1109 LOS ANGELES CA 90010,213-383-2097,-118.42924,34.32632,POINT (-118.42924 34.32632)
2707007008,01/05/2021 12:00:00 AM,Single Family,10711 N SUNNY BRAE AVE,LOS ANGELES,CA,91311,12,Security National Servicing Corp,Eric Moore,877-338-3791,edward zubia,Edward Zubia,3540   willshire BLVD  los angeles CA 90010,213-804-7437,-118.58058,34.26481,POINT (-118.58058 34.26481)
6032008012,10/25/2021 12:00:00 AM,Multi-Family,933 W 83RD ST,LOS ANGELES,CA,90044,8,Celink,Cory Daggett,866-654-0020,J & J BOARD- UPS/FIVE BROTHERS,JAVIER ORTIZ,475  S Rall AVE  Bassett CA 91746,626-290-9017,-118.29032,33.96369,POINT (-118.29032 33.96369)
5080018012,01/27/2021 12:00:00 AM,Multi-Family,1103 S HOBART BLVD,LOS ANGELES,CA,90006,10,Val-Chris Investments,Ryan Boulter,949-252-8004,NULL,NULL,,NULL,-118.3054,34.05065,POINT (-118.3054 34.05065)
4326034067,02/22/2021 12:00:00 AM,Single Family,10620 W EASTBORNE AVE 1-6,LOS ANGELES,CA,90024,5,"PEAK FORECLOSURE SERVICES, INC.",Kelli Espinoza,818-591-9237,NULL,NULL,,NULL,-118.43063,34.05416,POINT (-118.43063 34.05416)
5207005011,01/14/2021 12:00:00 AM,Multi-Family,3637 1/2 N GRIFFIN AVE,LOS ANGELES,CA,90031,1,BANK OF AMERICA,VPR DEPARTMENT,213-345-6264,Edward Zubia,Edward Zubia,3540   WILSHIRE BLVD 1109 LOS ANGELES CA 90010,213-804-7437,-118.20834,34.08732,POINT (-118.20834 34.08732)
2161018035,03/10/2021 12:00:00 AM,Single Family,5230 N RESEDA BLVD,LOS ANGELES,CA,91335,3,Mr. Cooper LLC,Paula Acosta,800-468-1743,Xome Field Services C/O New Beginning Properties Inc.,Lourdes Chavez,999  W Marshall BLVD  San Bernadino CA 92405,800-468-1743,-118.5371,34.16656,POINT (-118.5371 34.16656)
2022004012,01/25/2021 12:00:00 AM,Single Family,22649 W SHERMAN WAY,LOS ANGELES,CA,91307,12,Freedom Mortgage,Shannon Powell,317-537-3714,Greenfield Property LLC,MCS LLC,4033   Stable Drive   Palmdale CA 93552,866-563-1100,-118.62071,34.20116,POINT (-118.62071 34.20116)
4382022001,12/14/2021 12:00:00 AM,Single Family,3001 N BENEDICT CANYON DR,LOS ANGELES,CA,90210,5,"Cardenas Three, LLC",Elizabeth Velasquez,909-315-2746,NA,Elizabeth Velasquez,12223   Highland AVE 10655 Rancho Cucamonga CA 91739,909-315-2746,-118.43497,34.12455,POINT (-118.43497 34.12455)
5020007020,01/06/2021 12:00:00 AM,Multi-Family,1355 W VERNON AVE,LOS ANGELES,CA,90037,9,PHH Mortgage Corporation,Marquita Bullock,888-820-6474,The Herac Group,Torres Rose,11030   Arrow RE  RANCHOCUCAMONGA CA 91730,949-381-3495,-118.29937,34.00384,POINT (-118.29937 34.00384)
6108003031,01/23/2021 12:00:00 AM,Single Family,1589 W 183RD ST,LOS ANGELES,CA,90248,15,PHH Mortgage Corporation,Marquita Bullock,888-820-6474,Property Preservation Servicing LLC,Trevethan Aaron,27071   cabot RD  LAGUNA HILLS CA 92653,949-612-0342,-118.30568,33.86462,POINT (-118.30568 33.86462)
5051027016,01/04/2021 12:00:00 AM,Single Family,2907 S NORTON AVE,LOS ANGELES,CA,90018,10,Select Portfolio Servicing,Select Portfolio Servicing,888-349-8964,Edward Zubia,edaward zubia,3540   wilshire BLVD  Los Angeles CA 90010,213-804-7437,-118.3329,34.02922,POINT (-118.3329 34.02922)
2329020009,11/17/2021 12:00:00 AM,Single Family,6728 N VARNA AVE,LOS ANGELES,CA,91401,2,"Mr. Cooper/Nationstar Mortgage, LLC.",Mr. Cooper,888-456-0714,Edward Zubia,edaward zubia,3540   wilshire BLVD  Los Angeles CA 90010,213-804-7437,-118.42457,34.19291,POINT (-118.42457 34.19291)
2717002052,01/29/2021 12:00:00 AM,Single Family,18795 W KENYA ST,LOS ANGELES,CA,91326,12,Mr. Cooper,Paula Acosta,800-468-1743,"Solid Foundation Properties, LLC.",Compliance Team,2690   Cobb PKWY A5379 SMYRNA GA 30080,333-205-7447,-118.5432,34.27003,POINT (-118.5432 34.27003)
6032005011,09/09/2021 12:00:00 AM,Single Family,948 W 81ST ST,LOS ANGELES,CA,90044,8,"Aspen Properties Group, LLC",Kim Young,913-349-0401,EDWARD ZUBIA,EDWARD ZUBIA,3540   wilshire BLVD  Los Angeles CA 90010,818-406-3611,-118.29071,33.96534,POINT (-118.29071 33.96534)
5170003002,01/06/2021 12:00:00 AM,Single Family,1117 S MARIETTA ST,LOS ANGELES,CA,90023,14,BANK OF AMERICA,VPR DEPARTMENT,213-345-6264,First Team Real Estate,Eddy Leon,20234   State ROAD  Cerritos CA 90703,562-461-1200,-118.21398,34.0277,POINT (-118.21398 34.0277)
2034019034,01/05/2021 12:00:00 AM,Single Family,6568 N SHELTONDALE AVE,LOS ANGELES,CA,91307,12,PHH Mortgage Corporation,Marquita Bullock,888-820-6474,Property Preservation Servicing LLC,Trevethan Aaron,27071   cabot RD  LAGUNA HILLS CA 92653,949-612-0342,-118.65228,34.18986,POINT (-118.65228 34.18986)
5467031007,01/06/2021 12:00:00 AM,Single Family,4940 E MALTA ST,LOS ANGELES,CA,90042,1,Carrington Mortgage Services,code compliance,866-563-1100,Pinelands Preservation,Aaron Noble,1906   Irvine AVE  Newport Beach CA 92660,949-294-8778,-118.20481,34.10742,POINT (-118.20481 34.10742)
4006028002,11/30/2021 12:00:00 AM,Single Family,3130 W 68TH ST,LOS ANGELES,CA,90043,8,Celink,Cory Daggett,866-654-0020,J & J BOARD- UPS/FIVE BROTHERS,JAVIER ORTIZ,475  S Rall AVE  Bassett CA 91746,626-290-9017,-118.3276,33.97724,POINT (-118.3276 33.97724)
2107011042,01/15/2021 12:00:00 AM,Single Family,7924 N OSO AVE,LOS ANGELES,CA,91306,3,Specialized Loan Servicing LLC C/O Computershare on behalf of beneficiary,Computershare Management,720-241-7375,First Team Real Estate,Eddy Leon,20234   State ROAD  Cerritos CA 90703,562-461-1200,-118.57525,34.21453,POINT (-118.57525 34.21453)
2542008007,05/21/2021 12:00:00 AM,Vacant Residential,10340 N CLYBOURN AVE,LOS ANGELES,CA,91040,7,TJ Schramm,TJ Schramm,936-689-3315,NULL,NULL,,NULL,-118.37082,34.2583,POINT (-118.37082 34.2583)
5061016029,01/06/2021 12:00:00 AM,Multi-Family,2022 S HARCOURT AVE,LOS ANGELES,CA,90016,10,Capital Mortgage Services,Melinda Camacho,806-796-1231,J & J BOARD- UPS/FIVE BROTHERS,JAVIER ORTIZ,475  S Rall AVE  Bassett CA 91746,626-290-9017,-118.34309,34.03769,POINT (-118.34309 34.03769)
5424003010,01/04/2021 12:00:00 AM,Multi-Family,2323 W MAYBERRY ST,LOS ANGELES,CA,90026,13,Select Portfolio Servicing,Select Portfolio Servicing,888-349-8964,Edward Zubia,edaward zubia,3540   wilshire BLVD  Los Angeles CA 90010,213-804-7437,-118.26341,34.08401,POINT (-118.26341 34.08401)
4127023010,12/01/2021 12:00:00 AM,Single Family,5500 W 82ND ST,LOS ANGELES,CA,90045,11,Rediger Investment Mortgage Fund,Daren Rediger,818-842-2312,ZVN Properties Inc,Arek Helcberger,957  E Cherry ST  Canal Fulton OH 44614,330-854-5890,-118.37554,33.96388,POINT (-118.37554 33.96388)
2229037020,01/04/2021 12:00:00 AM,Single Family,6858 N LASAINE AVE,LOS ANGELES,CA,91406,6,Fay Servicing LLC,Eric Moore,877-338-3791,Safeguard,Code Compliance,27720   Jefferson AVE  Temecula CA 92590,877-338-3791,-118.51083,34.19565,POINT (-118.51083 34.19565)
2651005016,01/01/2021 12:00:00 AM,Single Family,14800 W CALAHAN ST,LOS ANGELES,CA,91402,6,BARRIOS C/O Franklin Credit Management Corp.,Donald Corporate,201-604-4505,Edward Zubia,edaward zubia,3540   wilshire BLVD  Los Angeles CA 90010,213-804-7437,-118.45556,34.23626,POINT (-118.45556 34.23626)
5567023009,01/15/2021 12:00:00 AM,Single Family,1930 N WEEPAH WAY,HOLLYWOOD,CA,90046,4,Select Portfolio Servicing,Select Portfolio Servicing,888-349-8964,Edward Zubia,edaward zubia,3540   wilshire BLVD  Los Angeles CA 90010,213-804-7437,-118.37396,34.10713,POINT (-118.37396 34.10713)
